district_id,state,district_name,longitude,latitude,new_student_cases,cumulative_student_cases,new_staff_cases,cumulative_staff_cases,other_new,other_cumulative,Link
200050,AK,Alaska Gateway School District,-142.827,63.64722,0,0,0,0,,,
200010,AK,Aleutian Region School District,179.6212,51.94896,0,0,0,0,,,
200007,AK,Aleutians East Borough School District,-161.997,55.24504,0,0,0,0,,,
200180,AK,Anchorage School District,-149.284,61.17425,0,0,0,0,,,
200525,AK,Annette Island School District,-131.47,55.13835,0,0,0,0,,,
200020,AK,Bering Strait School District,-164.189,64.78369,0,0,0,0,,,
200030,AK,Bristol Bay Borough School District,-156.967,58.74165,0,0,0,0,,,
200730,AK,Chatham School District,-136.321,58.25346,0,0,0,0,,,
200800,AK,Chugach School District,-146.203,60.48847,0,0,0,0,,,
200070,AK,Copper River School District,-144.134,61.7953,0,0,0,0,,,
200060,AK,Cordova City School District,-145.642,60.53014,0,0,0,0,,,
200090,AK,Craig City School District,-133.112,55.48875,0,0,0,0,,,
200100,AK,Delta-Greely School District,-145.698,63.82547,0,0,0,0,,,
200770,AK,Denali Borough School District,-150.027,63.68204,0,0,0,0,,,
200120,AK,Dillingham City School District,-158.532,59.06047,0,0,0,0,,,
200600,AK,Fairbanks North Star Borough School District,-146.548,64.67604,0,0,0,0,,,
200130,AK,Galena City School District,-156.873,64.74142,0,0,0,0,,,
200270,AK,Haines Borough School District,-135.576,59.0984,0,0,0,0,,,
200300,AK,Hoonah City School District,-135.431,58.12201,0,0,0,0,,,
200330,AK,Hydaburg City School District,-132.82,55.20584,0,0,0,0,,,
200520,AK,Iditarod Area School District,-156.155,62.70455,0,0,0,0,,,
200210,AK,Juneau Borough School District,-134.178,58.37291,0,0,0,0,,,
200360,AK,Kake City School District,-133.904,56.97532,0,0,0,0,,,
200005,AK,Kashunamiut School District,-165.594,61.52956,0,0,0,0,,,
200390,AK,Kenai Peninsula Borough School District,-151.723,59.98367,0,0,0,0,,,https://covid19.kpbsd.org/dashboard
200150,AK,Ketchikan Gateway Borough School District,-131.107,55.44994,0,0,0,0,,,
200450,AK,Klawock City School District,-133.086,55.55643,,,,,,,
200480,AK,Kodiak Island Borough School District,-153.918,57.7044,,,,,,6,https://kiborough.maps.arcgis.com/apps/opsdashboard/index.html#/25d4e24efaae4dc59c727e3fc30d32ae
200760,AK,Kuspuk School District,-158.036,61.52355,,,,,,,
200485,AK,Lake and Peninsula Borough School District,-156.413,58.10851,,,,,,,
200001,AK,Lower Kuskokwim School District,-163.435,60.21332,,,,,,,https://www.lksd.org/news/bethel_schools_move_to_high_risk
200003,AK,Lower Yukon School District,-163.19,62.28359,,,,,,,
200510,AK,Matanuska-Susitna Borough School District,-149.619,62.27909,,,,,1,1,https://www.matsuk12.us/coronavirus
200006,AK,Mount Edgecumbe High School Agency,-135.350471,57.05322,,,,,,,
200540,AK,Nenana City School District,-149.084,64.53605,,,,,,,
200570,AK,Nome Public Schools,-165.415,64.50574,,,,,,,
200610,AK,North Slope Borough School District,-153.473,69.44934,,,,,,,
200625,AK,Northwest Arctic Borough School District,-160.021,67.00507,,,,,,,
200630,AK,Pelican City School District,-136.215,57.95923,,,,,,,
200660,AK,Petersburg Borough School District,-133.009,57.11246,,,,,,,
200670,AK,Pribilof School District,-170.406,57.04951,,,,,,,
200680,AK,Saint Mary's School District,-163.244,62.06278,,,,,,,
200240,AK,Sitka School District,-135.367,57.1932,,,,,,,
200690,AK,Skagway School District,-135.338,59.56038,,,,,,,
200700,AK,Southeast Island School District,-133.224,55.72925,,,,,,,
200710,AK,Southwest Region School District,-158.267,59.54333,,,,,,,
200715,AK,Tanana City School District,-152.055,65.184,,,,,,,
200720,AK,Unalaska City School District,-166.528,53.9101,,,,,,,
200780,AK,Valdez City School District,-146.317,61.08362,,,,,,,
200810,AK,Wrangell Public School District,-132.344,56.31742,,,,,,,
200840,AK,Yakutat School District,-140.417,60.01745,,,,,,,
200775,AK,Yukon Flats School District,-145.259,66.71969,,,,,,,
200862,AK,Yukon-Koyukuk School District,-154.325,65.63448,,,,,,,
200004,AK,Yupiit School District,-161.419,60.89563,,,,,,,
100009,AL,Al Inst Deaf And Blind,-86.10269,33.43451,,,,,,,
100018,AL,Alabama School of Fine Arts,-86.813096,33.521224,,,,,,,
100002,AL,Alabama Youth Services,-86.09341,32.36545,,,,,,,
100190,AL,Alabaster City,-86.82417,33.226114,,,,,,,
100005,AL,Albertville City,-86.20939,34.268086,,,,,,,
100030,AL,Alexander City,-85.958438,32.94113,,,,,,,
100060,AL,Andalusia City,-86.483488,31.327783,,,,,,,
100090,AL,Anniston City,-85.8265,33.65876,,,,,,,
100100,AL,Arab City,-86.488256,34.327719,,,,,,,
100120,AL,Athens City,-86.946778,34.81388,,,,,,,
100180,AL,Attalla City,-86.108227,33.998694,,,,,,,
100210,AL,Auburn City,-85.47712,32.61253,,,,,,,
100240,AL,Autauga County,-86.473537,32.462911,,,,,,,
100270,AL,Baldwin County,-87.787828,30.912007,,,,,,,
100300,AL,Barbour County,-85.447909,31.87729,,,,,,,
100330,AL,Bessemer City,-86.96125,33.39503,,,,,,,
100360,AL,Bibb County,-87.124181,32.945928,,,,,,,
100390,AL,Birmingham City,-86.80192,33.51961,,,,,,,
100420,AL,Blount County,-86.47434,33.945305,,,,,,,
100012,AL,Boaz City,-86.15989,34.212847,,,,,,,
100450,AL,Brewton City,-87.07236,31.11757,,,,,,,
100480,AL,Bullock County,-85.71344,32.145205,,,,,,,
100510,AL,Butler County,-86.628683,31.815256,,,,,,,
100540,AL,Calhoun County,-85.8265,33.65876,,,,,,,
100600,AL,Chambers County,-85.39988,32.897519,,,,,,,
100630,AL,Cherokee County,-85.67843,34.151744,,,,,,,
100188,AL,Chickasaw City,-88.083642,30.766337,,,,,,,
100660,AL,Chilton County,-86.621652,32.868585,,,,,,,
100690,AL,Choctaw County,-88.233042,32.079642,,,,,,,
100720,AL,Clarke County,-87.772135,31.705365,,,,,,,
100750,AL,Clay County,-85.839,33.27348,,,,,,,
100780,AL,Cleburne County,-85.57528,33.64831,,,,,,,
100810,AL,Coffee County,-86.056396,31.410123,,,,,,,
100840,AL,Colbert County,-87.68671,34.71607,,,,,,,
100870,AL,Conecuh County,-86.969606,31.454859,,,,,,,
100900,AL,Coosa County,-86.218155,32.889594,,,,,,,
100930,AL,Covington County,-86.481402,31.321522,,,,,,,
100960,AL,Crenshaw County,-86.26627,31.70923,,,,,,,
100990,AL,Cullman City,-86.840652,34.179101,,,,,,,
101020,AL,Cullman County,-86.84792,34.17033,,,,,,,
101050,AL,Dale County,-85.619269,31.425394,,,,,,,
101080,AL,Daleville City,-85.711139,31.315593,,,,,,,
101110,AL,Dallas County,-87.02282,32.41279,,,,,,,
101170,AL,Decatur City,-86.98205,34.605873,,,,,,,
101140,AL,DeKalb County,-85.84206,34.50092,,,,,,,
101200,AL,Demopolis City,-87.835195,32.51412,,,,,,,
101230,AL,Dothan City,-85.435123,31.204963,,,,,,,
101260,AL,Elba City,-86.101899,31.42302,,,,,,,
101290,AL,Elmore County,-86.23195,32.56369,,,,,,,
101320,AL,Enterprise City,-85.85462,31.31516,,,,,,,
101350,AL,Escambia County,-87.07168,31.10441,,,,,,,
101380,AL,Etowah County,-86.055559,34.022263,,,,,,,
101410,AL,Eufaula City,-85.151312,31.868273,,,,,,,
101440,AL,Fairfield City,-86.915172,33.47442,,,,,,,
101470,AL,Fayette County,-87.83249,33.689365,,,,,,,
101530,AL,Florence City,-87.67545,34.802035,,,,,,,
101560,AL,Fort Payne City,-85.76957,34.48327,,,,,,,
101590,AL,Franklin County,-87.72888,34.50779,,,,,,,
101620,AL,Gadsden City,-86.008805,34.014035,,,,,,,
101640,AL,Geneva City,-85.879262,31.042513,,,,,,,
101660,AL,Geneva County,-85.879952,31.044267,,,,,,,
101680,AL,Greene County,-87.88918,32.841086,,,,,,,
100202,AL,Gulf Shores City,-87.688785,30.27452,,,,,,,
101690,AL,Guntersville City,-86.304075,34.34915,,,,,,,
101710,AL,Hale County,-87.593801,32.707324,,,,,,,
101720,AL,Haleyville City,-87.608012,34.226182,,,,,,,
101730,AL,Hartselle City,-86.931374,34.446424,,,,,,,
101740,AL,Henry County,-85.251934,31.567531,,,,,,,
101760,AL,Homewood City,-86.808326,33.477141,,,,,,,
100007,AL,Hoover City,-86.765964,33.406586,,,,,,,
101770,AL,Houston County,-85.396699,31.220717,,,,,,,
101800,AL,Huntsville City,-86.61621,34.72007,,,,,16,16,https://www.huntsvillecityschools.org/reset-plan/general-information/covid-19-facility-impact-reports
101830,AL,Jackson County,-86.033305,34.66737,,,,,,,
101860,AL,Jacksonville City,-85.76527,33.814784,,,,,,,
101890,AL,Jasper City,-87.277625,33.83424,,,,,,,
101920,AL,Jefferson County,-86.792646,33.487006,,,,,,,
101950,AL,Lamar County,-88.1065,33.7538,,,,,,,
101980,AL,Lanett City,-85.191231,32.868201,,,,,,,
102010,AL,Lauderdale County,-87.67545,34.802035,,,,,,,
102040,AL,Lawrence County,-87.292583,34.47515,,,,,,,
102070,AL,Lee County,-85.388037,32.622697,,,,,,,
100011,AL,Leeds City,-86.551365,33.546295,,,,,,,
102100,AL,Limestone County,-86.972312,34.801218,,,,,,,
102130,AL,Linden City,-87.794475,32.30317,,,,,,,
102160,AL,Lowndes County,-86.580667,32.180651,,,,,,,
102190,AL,Macon County,-85.690965,32.424535,,,,,,,
100008,AL,Madison City,-86.7449,34.686703,,,,,,,
102220,AL,Madison County,-86.593576,34.727576,,,,,,,
102250,AL,Marengo County,-87.794475,32.30317,,,,,,,
102310,AL,Marion County,-87.995003,34.115923,,,,,,,
100006,AL,Marshall County,-86.286699,34.305016,,,,,,,
102350,AL,Midfield City,-86.911281,33.458883,,,,,,,
102370,AL,Mobile County,-88.16845,30.72528,,,,1,,,https://www.wkrg.com/mobile-county/dodge-elementary-teacher-dies-from-covid-19/
102400,AL,Monroe County,-87.317825,31.517967,,2,,1,,,https://wgxa.tv/news/coronavirus/monroe-county-schools-releases-covid-19-report
102430,AL,Montgomery County,-86.31208,32.37495,,,,,,,
102480,AL,Morgan County,-86.900116,34.529036,,,,,,,
102490,AL,Mountain Brook City,-86.753717,33.501933,,,,,,,
102520,AL,Muscle Shoals City,-87.66771,34.74243,,,,,,,
102550,AL,Oneonta City,-86.485971,33.940503,,,,,,,
102580,AL,Opelika City,-85.390853,32.644048,,,,,,,
102610,AL,Opp City,-86.25884,31.28094,,,,,,,
102635,AL,Oxford City,-85.84279,33.59404,,,,,,,
102640,AL,Ozark City,-85.675736,31.468014,,,,,,,
100194,AL,Pelham City,-86.811884,33.287933,,,,,,,
102650,AL,Pell City,-86.27364,33.60542,,,,,,,
102670,AL,Perry County,-87.320975,32.628815,,,,,,,
102700,AL,Phenix City,-85.004792,32.471923,,,,,,,
102730,AL,Pickens County,-88.169067,33.253339,,,,,,,
102760,AL,Piedmont City,-85.615787,33.926857,,,,,,,
102790,AL,Pike County,-85.972141,31.806553,,,,,,,
100195,AL,Pike Road City,-86.101307,32.355434,,,,,,,
102820,AL,Randolph County,-85.478047,33.31231,,,,,,,
102850,AL,Roanoke City,-85.36331,33.17063,,,,,,,
102880,AL,Russell County,-85.004792,32.471923,,,,,,,
102910,AL,Russellville City,-87.737336,34.527001,,,,,,,
100185,AL,Saraland City,-88.07212,30.79915,,,,,,,
100189,AL,Satsuma City,-88.06763,30.84754,,,,,,,
102940,AL,Scottsboro City,-86.031252,34.671104,,,,,,,
102970,AL,Selma City,-87.02282,32.41279,,,,,,,
103000,AL,Sheffield City,-87.701838,34.764081,,,,,,,
103030,AL,Shelby County,-86.61207,33.20847,,,,,,,
103062,AL,St Clair County,-86.269665,33.819883,,,,,,,
103090,AL,Sumter County,-88.183237,32.615442,,,,,,,
103120,AL,Sylacauga City,-86.250803,33.168931,,,,,,,
103150,AL,Talladega City,-86.10269,33.43451,,,,,,,
103180,AL,Talladega County,-86.10269,33.43451,,,,,,,
103210,AL,Tallapoosa County,-85.754478,32.830679,,,,,,,
103240,AL,Tallassee City,-85.893245,32.536827,,,,,,,
103270,AL,Tarrant City,-86.780557,33.572954,,,,,,,
103300,AL,Thomasville City,-87.73843,31.91141,,,,,,,
103330,AL,Troy City,-85.96762,31.811395,,,,,,,
100013,AL,Trussville City,-86.607755,33.62072,,,,,,,
103360,AL,Tuscaloosa City,-87.56225,33.20253,,,,,,,
103390,AL,Tuscaloosa County,-87.56225,33.20253,,,,,,,
103420,AL,Tuscumbia City,-87.700169,34.737936,,,,,,,
103430,AL,Vestavia Hills City,-86.79055,33.444585,,,,,,,
103450,AL,Walker County,-87.277625,33.83424,,,,,,,
103480,AL,Washington County,-88.27641,31.47104,,,,,,,
103510,AL,Wilcox County,-87.176828,32.046547,,,,,,,
103540,AL,Winfield City,-87.81726,33.931565,,,,,,,
103580,AL,Winston County,-87.40246,34.14708,,,,,,,
502250,AR,ALMA SCHOOL DISTRICT,-94.219508,35.479474,,11,,6,11,,https://www.healthy.arkansas.gov/images/uploads/pdf/School_Report_09142020_(002).pdf
502280,AR,ALPENA SCHOOL DISTRICT,-93.29354,36.29352,,,,,,,https://www.healthy.arkansas.gov/images/uploads/pdf/School_Report_09142020_(002).pdf
502430,AR,ARKADELPHIA SCHOOL DISTRICT,-93.059833,34.123731,,,,,,,https://www.healthy.arkansas.gov/images/uploads/pdf/School_Report_09142020_(002).pdf
502550,AR,ARMOREL SCHOOL DISTRICT,-89.79835,35.92022,,,,,,,https://www.healthy.arkansas.gov/images/uploads/pdf/School_Report_09142020_(002).pdf
502580,AR,ASHDOWN SCHOOL DISTRICT,-94.134061,33.674249,,,,,,,https://www.healthy.arkansas.gov/images/uploads/pdf/School_Report_09142020_(002).pdf
502610,AR,ATKINS SCHOOL DISTRICT,-92.937527,35.244861,,,,,,,https://www.healthy.arkansas.gov/images/uploads/pdf/School_Report_09142020_(002).pdf
502670,AR,AUGUSTA SCHOOL DISTRICT,-91.365391,35.279913,,,,,,,https://www.healthy.arkansas.gov/images/uploads/pdf/School_Report_09142020_(002).pdf
502700,AR,BALD KNOB SCHOOL DISTRICT,-91.572147,35.313496,,,,,,,https://www.healthy.arkansas.gov/images/uploads/pdf/School_Report_09142020_(002).pdf
502730,AR,BARTON-LEXA SCHOOL DISTRICT,-90.76811,34.55102,,,,,,,https://www.healthy.arkansas.gov/images/uploads/pdf/School_Report_09142020_(002).pdf
500019,AR,BATESVILLE SCHOOL DISTRICT,-91.646063,35.775857,,22,,25,11,,https://www.healthy.arkansas.gov/images/uploads/pdf/School_Report_09142020_(002).pdf
502790,AR,BAUXITE SCHOOL DISTRICT,-92.510814,34.553877,,,,,,,https://www.healthy.arkansas.gov/images/uploads/pdf/School_Report_09142020_(002).pdf
502820,AR,BAY SCHOOL DISTRICT,-90.564286,35.74176,,,,,,,https://www.healthy.arkansas.gov/images/uploads/pdf/School_Report_09142020_(002).pdf
500032,AR,BEARDEN SCHOOL DISTRICT,-92.61711,33.726835,,,,,,,https://www.healthy.arkansas.gov/images/uploads/pdf/School_Report_09142020_(002).pdf
502880,AR,BEEBE SCHOOL DISTRICT,-91.896496,35.066964,,,,,,,https://www.healthy.arkansas.gov/images/uploads/pdf/School_Report_09142020_(002).pdf
502960,AR,BENTON SCHOOL DISTRICT,-92.57567,34.577985,,,,,7,12,https://www.healthy.arkansas.gov/images/uploads/pdf/School_Report_09142020_(002).pdf
503060,AR,BENTONVILLE SCHOOL DISTRICT,-94.21476,36.386132,,33,,9,6,,https://www.healthy.arkansas.gov/images/uploads/pdf/School_Report_09142020_(002).pdf
503090,AR,BERGMAN SCHOOL DISTRICT,-93.01346,36.31259,,11,,7,7,,https://www.healthy.arkansas.gov/images/uploads/pdf/School_Report_09142020_(002).pdf
503150,AR,BERRYVILLE SCHOOL DISTRICT,-93.582165,36.37499,,11,,9,11,,https://www.healthy.arkansas.gov/images/uploads/pdf/School_Report_09142020_(002).pdf
503240,AR,BISMARCK SCHOOL DISTRICT,-93.175958,34.314721,,,,,,,https://www.healthy.arkansas.gov/images/uploads/pdf/School_Report_09142020_(002).pdf
503300,AR,BLEVINS SCHOOL DISTRICT,-93.57498,33.87064,,,,,,,https://www.healthy.arkansas.gov/images/uploads/pdf/School_Report_09142020_(002).pdf
503320,AR,BLYTHEVILLE SCHOOL DISTRICT,-89.906855,35.9322,,,,,,,https://www.healthy.arkansas.gov/images/uploads/pdf/School_Report_09142020_(002).pdf
503450,AR,BOONEVILLE SCHOOL DISTRICT,-93.926203,35.144893,,,,,,,https://www.healthy.arkansas.gov/images/uploads/pdf/School_Report_09142020_(002).pdf
503480,AR,BRADFORD SCHOOL DISTRICT,-91.45521,35.423391,,,,,,,https://www.healthy.arkansas.gov/images/uploads/pdf/School_Report_09142020_(002).pdf
503630,AR,BRINKLEY SCHOOL DISTRICT,-91.195296,34.877472,,,,,,,https://www.healthy.arkansas.gov/images/uploads/pdf/School_Report_09142020_(002).pdf
503640,AR,BROOKLAND SCHOOL DISTRICT,-90.582418,35.907615,,,,,10,15,https://www.healthy.arkansas.gov/images/uploads/pdf/School_Report_09142020_(002).pdf
503690,AR,BRYANT SCHOOL DISTRICT,-92.492089,34.599804,,42,,8,7,,https://www.healthy.arkansas.gov/images/uploads/pdf/School_Report_09142020_(002).pdf
503710,AR,BUFFALO IS. CENTRAL SCH. DIST.,-90.345734,35.889205,,,,,,,https://www.healthy.arkansas.gov/images/uploads/pdf/School_Report_09142020_(002).pdf
503750,AR,CABOT SCHOOL DISTRICT,-92.006639,34.975181,,26,,5,9,,https://www.healthy.arkansas.gov/images/uploads/pdf/School_Report_09142020_(002).pdf
503770,AR,CADDO HILLS SCHOOL DISTRICT,-93.631858,34.41948,,,,,,,https://www.healthy.arkansas.gov/images/uploads/pdf/School_Report_09142020_(002).pdf
503840,AR,CALICO ROCK SCHOOL DISTRICT,-92.132612,36.123537,,,,,,,https://www.healthy.arkansas.gov/images/uploads/pdf/School_Report_09142020_(002).pdf
506060,AR,CAMDEN FAIRVIEW SCHOOL DIST.,-92.838617,33.587142,,,,,,,https://www.healthy.arkansas.gov/images/uploads/pdf/School_Report_09142020_(002).pdf
503960,AR,CARLISLE SCHOOL DISTRICT,-91.739702,34.786985,,,,,,,https://www.healthy.arkansas.gov/images/uploads/pdf/School_Report_09142020_(002).pdf
504050,AR,CAVE CITY SCHOOL DISTRICT,-91.551245,35.94864,,,,,,,https://www.healthy.arkansas.gov/images/uploads/pdf/School_Report_09142020_(002).pdf
500070,AR,CEDAR RIDGE SCHOOL DISTRICT,-91.446094,35.723004,,6,,5,10,,https://www.healthy.arkansas.gov/images/uploads/pdf/School_Report_09142020_(002).pdf
504080,AR,CEDARVILLE SCHOOL DISTRICT,-94.369499,35.576268,,,,,,,https://www.healthy.arkansas.gov/images/uploads/pdf/School_Report_09142020_(002).pdf
506690,AR,CENTERPOINT SCHOOL DISTRICT,-93.511619,34.287476,,,,,,,https://www.healthy.arkansas.gov/images/uploads/pdf/School_Report_09142020_(002).pdf
504200,AR,CHARLESTON SCHOOL DISTRICT,-94.039289,35.29961,,,,,,,https://www.healthy.arkansas.gov/images/uploads/pdf/School_Report_09142020_(002).pdf
504350,AR,CLARENDON SCHOOL DISTRICT,-91.307699,34.695397,,,,,,,https://www.healthy.arkansas.gov/images/uploads/pdf/School_Report_09142020_(002).pdf
504380,AR,CLARKSVILLE SCHOOL DISTRICT,-93.484362,35.461683,,,,,,,https://www.healthy.arkansas.gov/images/uploads/pdf/School_Report_09142020_(002).pdf
500067,AR,CLEVELAND COUNTY SCHOOL DIST.,-92.041515,34.00341,,,,,,,https://www.healthy.arkansas.gov/images/uploads/pdf/School_Report_09142020_(002).pdf
504410,AR,CLINTON SCHOOL DISTRICT,-92.4606,35.587467,,,,,5,30,https://www.healthy.arkansas.gov/images/uploads/pdf/School_Report_09142020_(002).pdf
504560,AR,CONCORD SCHOOL DISTRICT,-91.849092,35.665388,,,,,,,https://www.healthy.arkansas.gov/images/uploads/pdf/School_Report_09142020_(002).pdf
504590,AR,CONWAY SCHOOL DISTRICT,-92.457579,35.092157,,,,,11,35,https://www.healthy.arkansas.gov/images/uploads/pdf/School_Report_09142020_(002).pdf
500009,AR,CORNING SCHOOL DISTRICT,-90.584435,36.41123,,,,,,,https://www.healthy.arkansas.gov/images/uploads/pdf/School_Report_09142020_(002).pdf
500405,AR,COSSATOT RIVER SCHOOL DISTRICT,-94.335992,34.298653,,,,,,,https://www.healthy.arkansas.gov/images/uploads/pdf/School_Report_09142020_(002).pdf
504680,AR,COTTER SCHOOL DISTRICT,-92.534175,36.27074,,,,,,,https://www.healthy.arkansas.gov/images/uploads/pdf/School_Report_09142020_(002).pdf
504740,AR,COUNTY LINE SCHOOL DISTRICT,-93.917501,35.307274,,,,,,,https://www.healthy.arkansas.gov/images/uploads/pdf/School_Report_09142020_(002).pdf
504800,AR,CROSSETT SCHOOL DISTRICT,-91.961487,33.132692,,,,,,,https://www.healthy.arkansas.gov/images/uploads/pdf/School_Report_09142020_(002).pdf
504860,AR,CUTTER-MORNING STAR SCH. DIST.,-92.9901,34.502865,,,,,5,5,https://www.healthy.arkansas.gov/images/uploads/pdf/School_Report_09142020_(002).pdf
504890,AR,DANVILLE SCHOOL DISTRICT,-93.389775,35.05276,,,,,,,https://www.healthy.arkansas.gov/images/uploads/pdf/School_Report_09142020_(002).pdf
504930,AR,DARDANELLE SCHOOL DISTRICT,-93.160798,35.227604,,,,,,,https://www.healthy.arkansas.gov/images/uploads/pdf/School_Report_09142020_(002).pdf
504980,AR,DECATUR SCHOOL DISTRICT,-94.44551,36.333212,,,,,,,https://www.healthy.arkansas.gov/images/uploads/pdf/School_Report_09142020_(002).pdf
500072,AR,DEER/MT. JUDEA SCHOOL DISTRICT,-93.25801,35.902964,,,,,,,https://www.healthy.arkansas.gov/images/uploads/pdf/School_Report_09142020_(002).pdf
500049,AR,DEQUEEN SCHOOL DISTRICT,-94.34386,34.039265,,,,,,,https://www.healthy.arkansas.gov/images/uploads/pdf/School_Report_09142020_(002).pdf
505170,AR,DERMOTT SCHOOL DISTRICT,-91.42884,33.523561,,,,,,,https://www.healthy.arkansas.gov/images/uploads/pdf/School_Report_09142020_(002).pdf
505190,AR,DES ARC SCHOOL DISTRICT,-91.49906,34.977007,,,,,,,https://www.healthy.arkansas.gov/images/uploads/pdf/School_Report_09142020_(002).pdf
500001,AR,DEWITT SCHOOL DISTRICT,-91.33912,34.294257,,,,,,,https://www.healthy.arkansas.gov/images/uploads/pdf/School_Report_09142020_(002).pdf
505340,AR,DIERKS SCHOOL DISTRICT,-94.016839,34.12181,,,,,,,https://www.healthy.arkansas.gov/images/uploads/pdf/School_Report_09142020_(002).pdf
505410,AR,DOLLARWAY SCHOOL DISTRICT,-92.055597,34.240755,,,,,6,8,https://www.healthy.arkansas.gov/images/uploads/pdf/School_Report_09142020_(002).pdf
505430,AR,DOVER SCHOOL DISTRICT,-93.110915,35.39951,,,,,,,https://www.healthy.arkansas.gov/images/uploads/pdf/School_Report_09142020_(002).pdf
505470,AR,DREW CENTRAL SCHOOL DISTRICT,-91.80766,33.590847,,,,,,,https://www.healthy.arkansas.gov/images/uploads/pdf/School_Report_09142020_(002).pdf
505500,AR,DUMAS SCHOOL DISTRICT,-91.485407,33.886111,,,,,,,https://www.healthy.arkansas.gov/images/uploads/pdf/School_Report_09142020_(002).pdf
505550,AR,EARLE SCHOOL DISTRICT,-90.460325,35.26745,,,,,,,https://www.healthy.arkansas.gov/images/uploads/pdf/School_Report_09142020_(002).pdf
505580,AR,EAST END SCHOOL DISTRICT,-92.630626,35.000459,,,,,,,https://www.healthy.arkansas.gov/images/uploads/pdf/School_Report_09142020_(002).pdf
500048,AR,EAST POINSETT CO. SCHOOL DIST.,-90.340314,35.609441,,,,,,,https://www.healthy.arkansas.gov/images/uploads/pdf/School_Report_09142020_(002).pdf
505680,AR,EL DORADO SCHOOL DISTRICT,-92.6652,33.213337,,,,,,,https://www.healthy.arkansas.gov/images/uploads/pdf/School_Report_09142020_(002).pdf
505760,AR,ELKINS SCHOOL DISTRICT,-94.008734,36.005301,,,,,,,https://www.healthy.arkansas.gov/images/uploads/pdf/School_Report_09142020_(002).pdf
500068,AR,EMERSON-TAYLOR SCHOOL DISTRICT,-93.19501,33.09728,,,,,,,https://www.healthy.arkansas.gov/images/uploads/pdf/School_Report_09142020_(002).pdf
505850,AR,ENGLAND SCHOOL DISTRICT,-91.956375,34.542884,,,,,,,https://www.healthy.arkansas.gov/images/uploads/pdf/School_Report_09142020_(002).pdf
505970,AR,EUREKA SPRINGS SCHOOL DISTRICT,-93.732138,36.381916,,,,,,,https://www.healthy.arkansas.gov/images/uploads/pdf/School_Report_09142020_(002).pdf
506090,AR,FARMINGTON SCHOOL DISTRICT,-94.247305,36.03873,,,,,,,https://www.healthy.arkansas.gov/images/uploads/pdf/School_Report_09142020_(002).pdf
506120,AR,FAYETTEVILLE SCHOOL DISTRICT,-94.174022,36.059559,,,,,6,22,https://www.healthy.arkansas.gov/images/uploads/pdf/School_Report_09142020_(002).pdf
506150,AR,FLIPPIN SCHOOL DISTRICT,-92.597757,36.279553,,,,,,,https://www.healthy.arkansas.gov/images/uploads/pdf/School_Report_09142020_(002).pdf
506210,AR,FORDYCE SCHOOL DISTRICT,-92.412635,33.811265,,,,,,,https://www.healthy.arkansas.gov/images/uploads/pdf/School_Report_09142020_(002).pdf
506240,AR,FOREMAN SCHOOL DISTRICT,-94.39578,33.721085,,6,,0,5,,https://www.healthy.arkansas.gov/images/uploads/pdf/School_Report_09142020_(002).pdf
506270,AR,FORREST CITY SCHOOL DISTRICT,-90.788534,35.01648,,20,,6,6,,https://www.healthy.arkansas.gov/images/uploads/pdf/School_Report_09142020_(002).pdf
506330,AR,FORT SMITH SCHOOL DISTRICT,-94.421095,35.384465,,102,,21,25,,https://www.healthy.arkansas.gov/images/uploads/pdf/School_Report_09142020_(002).pdf
506360,AR,FOUKE SCHOOL DISTRICT,-93.88934,33.26092,,,,,,,https://www.healthy.arkansas.gov/images/uploads/pdf/School_Report_09142020_(002).pdf
506420,AR,FOUNTAIN LAKE SCHOOL DISTRICT,-92.988761,34.572908,,,,,,,https://www.healthy.arkansas.gov/images/uploads/pdf/School_Report_09142020_(002).pdf
504110,AR,GENOA CENTRAL SCHOOL DISTRICT,-93.873116,33.373445,,,,,7,13,https://www.healthy.arkansas.gov/images/uploads/pdf/School_Report_09142020_(002).pdf
506540,AR,GENTRY SCHOOL DISTRICT,-94.48619,36.265982,,,,,,,https://www.healthy.arkansas.gov/images/uploads/pdf/School_Report_09142020_(002).pdf
506630,AR,GLEN ROSE SCHOOL DISTRICT,-92.731077,34.456812,,,,,,,https://www.healthy.arkansas.gov/images/uploads/pdf/School_Report_09142020_(002).pdf
500029,AR,GOSNELL SCHOOL DISTRICT,-89.966559,35.961106,,,,,,,https://www.healthy.arkansas.gov/images/uploads/pdf/School_Report_09142020_(002).pdf
506840,AR,GRAVETTE SCHOOL DISTRICT,-94.44737,36.420379,,,,,,,https://www.healthy.arkansas.gov/images/uploads/pdf/School_Report_09142020_(002).pdf
506870,AR,GREEN FOREST SCHOOL DISTRICT,-93.434195,36.33536,,,,,6,26,https://www.healthy.arkansas.gov/images/uploads/pdf/School_Report_09142020_(002).pdf
506900,AR,GREENBRIER SCHOOL DISTRICT,-92.389883,35.227859,,10,,5,8,,https://www.healthy.arkansas.gov/images/uploads/pdf/School_Report_09142020_(002).pdf
513080,AR,GREENE CO. TECH SCHOOL DIST.,-90.557595,36.065345,,10,,6,6,,https://www.healthy.arkansas.gov/images/uploads/pdf/School_Report_09142020_(002).pdf
506930,AR,GREENLAND SCHOOL DISTRICT,-94.173837,36.00354,,,,,,,https://www.healthy.arkansas.gov/images/uploads/pdf/School_Report_09142020_(002).pdf
506990,AR,GREENWOOD SCHOOL DISTRICT,-94.255898,35.218699,,,,,,,https://www.healthy.arkansas.gov/images/uploads/pdf/School_Report_09142020_(002).pdf
507110,AR,GURDON SCHOOL DISTRICT,-93.186921,33.909791,,,,,,,https://www.healthy.arkansas.gov/images/uploads/pdf/School_Report_09142020_(002).pdf
507140,AR,GUY-PERKINS SCHOOL DISTRICT,-92.32506,35.325272,,,,,,,https://www.healthy.arkansas.gov/images/uploads/pdf/School_Report_09142020_(002).pdf
507170,AR,HACKETT SCHOOL DISTRICT,-94.409781,35.186647,,,,,,,https://www.healthy.arkansas.gov/images/uploads/pdf/School_Report_09142020_(002).pdf
500042,AR,HAMBURG SCHOOL DISTRICT,-91.79622,33.224183,,,,,,,https://www.healthy.arkansas.gov/images/uploads/pdf/School_Report_09142020_(002).pdf
507230,AR,HAMPTON SCHOOL DISTRICT,-92.46554,33.53911,,,,,,,https://www.healthy.arkansas.gov/images/uploads/pdf/School_Report_09142020_(002).pdf
507290,AR,HARMONY GROVE SCHOOL DISTRICT,-92.778931,33.651221,,,,,,,https://www.healthy.arkansas.gov/images/uploads/pdf/School_Report_09142020_(002).pdf
507320,AR,HARMONY GROVE SCHOOL DISTRICT,-92.643478,34.508948,,,,,,,https://www.healthy.arkansas.gov/images/uploads/pdf/School_Report_09142020_(002).pdf
507350,AR,HARRISBURG SCHOOL DISTRICT,-90.723771,35.560043,,,,,,,https://www.healthy.arkansas.gov/images/uploads/pdf/School_Report_09142020_(002).pdf
507380,AR,HARRISON SCHOOL DISTRICT,-93.112321,36.229497,,,,,8,12,https://www.healthy.arkansas.gov/images/uploads/pdf/School_Report_09142020_(002).pdf
507530,AR,HAZEN SCHOOL DISTRICT,-91.580977,34.784069,,,,,,,https://www.healthy.arkansas.gov/images/uploads/pdf/School_Report_09142020_(002).pdf
507560,AR,HEBER SPRINGS SCHOOL DISTRICT,-92.040954,35.495736,,,,,,,https://www.healthy.arkansas.gov/images/uploads/pdf/School_Report_09142020_(002).pdf
507620,AR,HECTOR SCHOOL DISTRICT,-92.974934,35.469046,,,,,,,https://www.healthy.arkansas.gov/images/uploads/pdf/School_Report_09142020_(002).pdf
507680,AR,HELENA/ W.HELENA SCHOOL DIST.,-90.590635,34.528118,,,,,,,https://www.healthy.arkansas.gov/images/uploads/pdf/School_Report_09142020_(002).pdf
507710,AR,HERMITAGE SCHOOL DISTRICT,-92.148102,33.386201,,,,,,,https://www.healthy.arkansas.gov/images/uploads/pdf/School_Report_09142020_(002).pdf
507770,AR,HIGHLAND SCHOOL DISTRICT,-91.481425,36.31631,,,,,,,https://www.healthy.arkansas.gov/images/uploads/pdf/School_Report_09142020_(002).pdf
500071,AR,HILLCREST SCHOOL DISTRICT,-91.31935,35.968254,,,,,,,https://www.healthy.arkansas.gov/images/uploads/pdf/School_Report_09142020_(002).pdf
507840,AR,HOPE SCHOOL DISTRICT,-93.590979,33.668117,,,,,,,https://www.healthy.arkansas.gov/images/uploads/pdf/School_Report_09142020_(002).pdf
507860,AR,HORATIO SCHOOL DISTRICT,-94.349711,33.938366,,,,,,,https://www.healthy.arkansas.gov/images/uploads/pdf/School_Report_09142020_(002).pdf
507890,AR,HOT SPRINGS SCHOOL DISTRICT,-93.061272,34.497502,,,,,9,18,https://www.healthy.arkansas.gov/images/uploads/pdf/School_Report_09142020_(002).pdf
507990,AR,HOXIE SCHOOL DISTRICT,-90.974375,36.05126,,,,,,,https://www.healthy.arkansas.gov/images/uploads/pdf/School_Report_09142020_(002).pdf
508130,AR,HUNTSVILLE SCHOOL DISTRICT,-93.7386,36.08861,,,,,,,https://www.healthy.arkansas.gov/images/uploads/pdf/School_Report_09142020_(002).pdf
500021,AR,IZARD CO. CONS. SCHOOL DIST.,-91.92717,36.146114,,,,,,,https://www.healthy.arkansas.gov/images/uploads/pdf/School_Report_09142020_(002).pdf
513230,AR,JACKSON CO. SCHOOL DISTRICT,-91.199695,35.72835,,,,,7,8,https://www.healthy.arkansas.gov/images/uploads/pdf/School_Report_09142020_(002).pdf
500419,AR,JACKSONVILLE NORTH PULASKI SCHOOL DISTRICT,-92.124285,34.866764,,,,,,,https://www.healthy.arkansas.gov/images/uploads/pdf/School_Report_09142020_(002).pdf
508240,AR,JASPER SCHOOL DISTRICT,-93.185675,36.0048,,,,,6,11,https://www.healthy.arkansas.gov/images/uploads/pdf/School_Report_09142020_(002).pdf
507920,AR,JESSIEVILLE SCHOOL DISTRICT,-93.239825,34.668068,,,,,,,https://www.healthy.arkansas.gov/images/uploads/pdf/School_Report_09142020_(002).pdf
508280,AR,JONESBORO SCHOOL DISTRICT,-90.708385,35.81722,,22,,8,9,,https://www.healthy.arkansas.gov/images/uploads/pdf/School_Report_09142020_(002).pdf
508340,AR,JUNCTION CITY SCHOOL DISTRICT,-92.72486,33.02025,,,,,,,https://www.healthy.arkansas.gov/images/uploads/pdf/School_Report_09142020_(002).pdf
508490,AR,KIRBY SCHOOL DISTRICT,-93.7441,34.23667,,,,,5,9,https://www.healthy.arkansas.gov/images/uploads/pdf/School_Report_09142020_(002).pdf
500065,AR,LAFAYETTE COUNTY SCHOOL DISTRICT,-93.58105,33.35995,,,,,,,https://www.healthy.arkansas.gov/images/uploads/pdf/School_Report_09142020_(002).pdf
508610,AR,LAKE HAMILTON SCHOOL DISTRICT,-93.210991,34.443114,,25,,5,6,,https://www.healthy.arkansas.gov/images/uploads/pdf/School_Report_09142020_(002).pdf
508670,AR,LAKESIDE SCHOOL DISTRICT,-92.999909,34.47069,,,,,,,https://www.healthy.arkansas.gov/images/uploads/pdf/School_Report_09142020_(002).pdf
508640,AR,LAKESIDE SCHOOL DISTRICT (CHICOT COUNTY),-91.283724,33.322316,,,,,,,https://www.healthy.arkansas.gov/images/uploads/pdf/School_Report_09142020_(002).pdf
508700,AR,LAMAR SCHOOL DISTRICT,-93.394614,35.435301,,,,,,,https://www.healthy.arkansas.gov/images/uploads/pdf/School_Report_09142020_(002).pdf
508730,AR,LAVACA SCHOOL DISTRICT,-94.175415,35.33798,,,,,,,https://www.healthy.arkansas.gov/images/uploads/pdf/School_Report_09142020_(002).pdf
500082,AR,LAWRENCE COUNTY SCHOOL DISTRICT,-90.957716,36.063827,,,,,,,https://www.healthy.arkansas.gov/images/uploads/pdf/School_Report_09142020_(002).pdf
503420,AR,LEAD HILL SCHOOL DISTRICT,-92.918985,36.459715,,,,,,,https://www.healthy.arkansas.gov/images/uploads/pdf/School_Report_09142020_(002).pdf
509360,AR,LEE COUNTY SCHOOL DISTRICT,-90.76359,34.774558,,,,,,,https://www.healthy.arkansas.gov/images/uploads/pdf/School_Report_09142020_(002).pdf
508940,AR,LINCOLN SCHOOL DISTRICT,-94.422245,35.94935,,,,,,,https://www.healthy.arkansas.gov/images/uploads/pdf/School_Report_09142020_(002).pdf
509000,AR,LITTLE ROCK SCHOOL DISTRICT,-92.279404,34.749346,,,,,,,https://www.healthy.arkansas.gov/images/uploads/pdf/School_Report_09142020_(002).pdf
509060,AR,LONOKE SCHOOL DISTRICT,-91.903786,34.778885,,,,,,,https://www.healthy.arkansas.gov/images/uploads/pdf/School_Report_09142020_(002).pdf
509150,AR,MAGAZINE SCHOOL DISTRICT,-93.798911,35.150295,,,,,,,https://www.healthy.arkansas.gov/images/uploads/pdf/School_Report_09142020_(002).pdf
509190,AR,MAGNET COVE SCHOOL DIST.,-92.83574,34.445604,,,,,,,https://www.healthy.arkansas.gov/images/uploads/pdf/School_Report_09142020_(002).pdf
500044,AR,MAGNOLIA SCHOOL DISTRICT,-93.238275,33.267655,,,,,,,https://www.healthy.arkansas.gov/images/uploads/pdf/School_Report_09142020_(002).pdf
509240,AR,MALVERN SCHOOL DISTRICT,-92.806706,34.355485,,,,,,,https://www.healthy.arkansas.gov/images/uploads/pdf/School_Report_09142020_(002).pdf
509270,AR,MAMMOTH SPRING SCHOOL DISTRICT,-91.541867,36.4909,,,,,,,https://www.healthy.arkansas.gov/images/uploads/pdf/School_Report_09142020_(002).pdf
500046,AR,MANILA SCHOOL DISTRICT,-90.180018,35.885393,,,,,5,12,https://www.healthy.arkansas.gov/images/uploads/pdf/School_Report_09142020_(002).pdf
509330,AR,MANSFIELD SCHOOL DISTRICT,-94.247779,35.061867,,,,,,,https://www.healthy.arkansas.gov/images/uploads/pdf/School_Report_09142020_(002).pdf
509390,AR,MARION SCHOOL DISTRICT,-90.202176,35.208329,,,,,,,https://www.healthy.arkansas.gov/images/uploads/pdf/School_Report_09142020_(002).pdf
509420,AR,MARKED TREE SCHOOL DISTRICT,-90.420568,35.527798,,,,,,,https://www.healthy.arkansas.gov/images/uploads/pdf/School_Report_09142020_(002).pdf
500016,AR,MARMADUKE SCHOOL DISTRICT,-90.39277,36.193058,,,,,,,https://www.healthy.arkansas.gov/images/uploads/pdf/School_Report_09142020_(002).pdf
509510,AR,MARVELL SCHOOL DISTRICT,-90.91048,34.55699,,,,,,,https://www.healthy.arkansas.gov/images/uploads/pdf/School_Report_09142020_(002).pdf
509540,AR,MAYFLOWER SCHOOL DISTRICT,-92.42878,34.956525,,,,,,,https://www.healthy.arkansas.gov/images/uploads/pdf/School_Report_09142020_(002).pdf
509570,AR,MAYNARD SCHOOL DISTRICT,-90.901795,36.419377,,,,,,,https://www.healthy.arkansas.gov/images/uploads/pdf/School_Report_09142020_(002).pdf
509600,AR,MCCRORY SCHOOL DISTRICT,-91.195751,35.258498,,,,,1,1,https://www.healthy.arkansas.gov/images/uploads/pdf/School_Report_09142020_(002).pdf
509630,AR,MCGEHEE SCHOOL DISTRICT,-91.399289,33.627884,,,,,,,https://www.healthy.arkansas.gov/images/uploads/pdf/School_Report_09142020_(002).pdf
509720,AR,MELBOURNE SCHOOL DISTRICT,-91.906936,36.06342,,,,,,,https://www.healthy.arkansas.gov/images/uploads/pdf/School_Report_09142020_(002).pdf
509750,AR,MENA SCHOOL DISTRICT,-94.239324,34.587355,,,,,,,https://www.healthy.arkansas.gov/images/uploads/pdf/School_Report_09142020_(002).pdf
500020,AR,MIDLAND SCHOOL DISTRICT,-91.62179,35.56148,,,,,,,https://www.healthy.arkansas.gov/images/uploads/pdf/School_Report_09142020_(002).pdf
509780,AR,MINERAL SPRINGS SCHOOL DIST.,-93.917405,33.87617,,,,,,,https://www.healthy.arkansas.gov/images/uploads/pdf/School_Report_09142020_(002).pdf
509840,AR,MONTICELLO SCHOOL DISTRICT,-91.814909,33.609604,,,,,,,https://www.healthy.arkansas.gov/images/uploads/pdf/School_Report_09142020_(002).pdf
509990,AR,MOUNT IDA SCHOOL DISTRICT,-93.631903,34.553378,,,,,,,https://www.healthy.arkansas.gov/images/uploads/pdf/School_Report_09142020_(002).pdf
500043,AR,MOUNTAIN HOME SCHOOL DISTRICT,-92.403237,36.333864,,,,,,,https://www.healthy.arkansas.gov/images/uploads/pdf/School_Report_09142020_(002).pdf
510170,AR,MOUNTAIN PINE SCHOOL DISTRICT,-93.140478,34.596996,,,,,,,https://www.healthy.arkansas.gov/images/uploads/pdf/School_Report_09142020_(002).pdf
510200,AR,MOUNTAIN VIEW SCHOOL DISTRICT,-92.08356,35.858563,,,,,5,15,https://www.healthy.arkansas.gov/images/uploads/pdf/School_Report_09142020_(002).pdf
510260,AR,MOUNTAINBURG SCHOOL DISTRICT,-94.170779,35.631633,,,,,,,https://www.healthy.arkansas.gov/images/uploads/pdf/School_Report_09142020_(002).pdf
510080,AR,MT. VERNON/ENOLA SCHOOL DIST.,-92.123945,35.225785,,,,,,,https://www.healthy.arkansas.gov/images/uploads/pdf/School_Report_09142020_(002).pdf
510290,AR,MULBERRY SCHOOL DISTRICT,-94.053555,35.503165,,,,,,,https://www.healthy.arkansas.gov/images/uploads/pdf/School_Report_09142020_(002).pdf
510680,AR,N. LITTLE ROCK SCHOOL DISTRICT,-92.265035,34.779364,,24,,11,7,,https://www.healthy.arkansas.gov/images/uploads/pdf/School_Report_09142020_(002).pdf
510380,AR,NASHVILLE SCHOOL DISTRICT,-93.850752,33.949836,,,,,,,https://www.healthy.arkansas.gov/images/uploads/pdf/School_Report_09142020_(002).pdf
510410,AR,NEMO VISTA SCHOOL DISTRICT,-92.56419,35.369073,,,,,1,1,https://www.healthy.arkansas.gov/images/uploads/pdf/School_Report_09142020_(002).pdf
510440,AR,NETTLETON SCHOOL DISTRICT,-90.649023,35.806187,,,,,7,27,https://www.healthy.arkansas.gov/images/uploads/pdf/School_Report_09142020_(002).pdf
500030,AR,NEVADA SCHOOL DISTRICT,-93.407268,33.55736,,,,,,,https://www.healthy.arkansas.gov/images/uploads/pdf/School_Report_09142020_(002).pdf
500023,AR,NEWPORT SCHOOL DISTRICT,-91.271003,35.601994,,,,,,,https://www.healthy.arkansas.gov/images/uploads/pdf/School_Report_09142020_(002).pdf
510560,AR,NORFORK SCHOOL DISTRICT,-92.266753,36.197684,,,,,,,https://www.healthy.arkansas.gov/images/uploads/pdf/School_Report_09142020_(002).pdf
510920,AR,OMAHA SCHOOL DISTRICT,-93.197819,36.449358,,,,,,,https://www.healthy.arkansas.gov/images/uploads/pdf/School_Report_09142020_(002).pdf
510950,AR,OSCEOLA SCHOOL DISTRICT,-90.012514,35.705352,,,,,,,https://www.healthy.arkansas.gov/images/uploads/pdf/School_Report_09142020_(002).pdf
500073,AR,OUACHITA RIVER SCHOOL DISTRICT,-94.206404,34.637495,,,,,,,https://www.healthy.arkansas.gov/images/uploads/pdf/School_Report_09142020_(002).pdf
510980,AR,OUACHITA SCHOOL DISTRICT,-92.964584,34.239763,,,,,,,https://www.healthy.arkansas.gov/images/uploads/pdf/School_Report_09142020_(002).pdf
500076,AR,OZARK MOUNTAIN SCHOOL DISTRICT,-92.806383,36.030759,,,,,,,https://www.healthy.arkansas.gov/images/uploads/pdf/School_Report_09142020_(002).pdf
511010,AR,OZARK SCHOOL DISTRICT,-93.831135,35.48737,,,,,5,14,https://www.healthy.arkansas.gov/images/uploads/pdf/School_Report_09142020_(002).pdf
500051,AR,PALESTINE-WHEATLEY SCH. DIST.,-90.90412,34.972376,,,,,,,https://www.healthy.arkansas.gov/images/uploads/pdf/School_Report_09142020_(002).pdf
511070,AR,PANGBURN SCHOOL DISTRICT,-91.837273,35.428295,,,,,1,1,https://www.healthy.arkansas.gov/images/uploads/pdf/School_Report_09142020_(002).pdf
500017,AR,PARAGOULD SCHOOL DISTRICT,-90.50532,36.056352,,,,,,,https://www.healthy.arkansas.gov/images/uploads/pdf/School_Report_09142020_(002).pdf
511130,AR,PARIS SCHOOL DISTRICT,-93.721103,35.296656,,,,,,,https://www.healthy.arkansas.gov/images/uploads/pdf/School_Report_09142020_(002).pdf
511220,AR,PARKERS CHAPEL SCHOOL DIST.,-92.722444,33.168423,,,,,,,https://www.healthy.arkansas.gov/images/uploads/pdf/School_Report_09142020_(002).pdf
503030,AR,PEA RIDGE SCHOOL DISTRICT,-94.123998,36.45599,,,,,,,https://www.healthy.arkansas.gov/images/uploads/pdf/School_Report_09142020_(002).pdf
511340,AR,PERRYVILLE SCHOOL DISTRICT,-92.799022,35.000476,,,,,,,https://www.healthy.arkansas.gov/images/uploads/pdf/School_Report_09142020_(002).pdf
511370,AR,PIGGOTT SCHOOL DISTRICT,-90.18966,36.38347,,8,,5,7,,https://www.healthy.arkansas.gov/images/uploads/pdf/School_Report_09142020_(002).pdf
500026,AR,PINE BLUFF SCHOOL DISTRICT,-92.004438,34.224201,,28,,7,6,,https://www.healthy.arkansas.gov/images/uploads/pdf/School_Report_09142020_(002).pdf
511610,AR,POCAHONTAS SCHOOL DISTRICT,-90.983532,36.279452,,,,,5,6,https://www.healthy.arkansas.gov/images/uploads/pdf/School_Report_09142020_(002).pdf
511700,AR,POTTSVILLE SCHOOL DISTRICT,-93.048955,35.247628,,,,,,,https://www.healthy.arkansas.gov/images/uploads/pdf/School_Report_09142020_(002).pdf
511730,AR,POYEN SCHOOL DISTRICT,-92.641756,34.326732,,,,,,,https://www.healthy.arkansas.gov/images/uploads/pdf/School_Report_09142020_(002).pdf
511760,AR,PRAIRIE GROVE SCHOOL DISTRICT,-94.318109,35.983758,,,,,,,https://www.healthy.arkansas.gov/images/uploads/pdf/School_Report_09142020_(002).pdf
511820,AR,PRESCOTT SCHOOL DISTRICT,-93.376202,33.791803,,,,,,,https://www.healthy.arkansas.gov/images/uploads/pdf/School_Report_09142020_(002).pdf
511850,AR,PULASKI CO. SPEC. SCHOOL DIST.,-92.273601,34.731346,,34,,8,20,,https://www.healthy.arkansas.gov/images/uploads/pdf/School_Report_09142020_(002).pdf
511880,AR,QUITMAN SCHOOL DISTRICT,-92.21276,35.384059,,,,,,,https://www.healthy.arkansas.gov/images/uploads/pdf/School_Report_09142020_(002).pdf
504370,AR,RECTOR SCHOOL DISTRICT,-90.29276,36.262335,,,,,,,https://www.healthy.arkansas.gov/images/uploads/pdf/School_Report_09142020_(002).pdf
500045,AR,RIVERCREST SCHOOL DISTRICT #57,-90.041887,35.561897,,,,,,,https://www.healthy.arkansas.gov/images/uploads/pdf/School_Report_09142020_(002).pdf
500012,AR,RIVERSIDE SCHOOL DISTRICT,-90.435737,35.815835,,,,,,,https://www.healthy.arkansas.gov/images/uploads/pdf/School_Report_09142020_(002).pdf
508400,AR,RIVERVIEW SCHOOL DISTRICT,-91.691588,35.252592,,,,,,,https://www.healthy.arkansas.gov/images/uploads/pdf/School_Report_09142020_(002).pdf
511970,AR,ROGERS SCHOOL DISTRICT,-94.121926,36.333393,,43,,8,10,,https://www.healthy.arkansas.gov/images/uploads/pdf/School_Report_09142020_(002).pdf
512000,AR,ROSE BUD SCHOOL DISTRICT,-92.07171,35.335455,,,,,,,https://www.healthy.arkansas.gov/images/uploads/pdf/School_Report_09142020_(002).pdf
512060,AR,RUSSELLVILLE SCHOOL DISTRICT,-93.136099,35.269647,,39,,9,5,,https://www.healthy.arkansas.gov/images/uploads/pdf/School_Report_09142020_(002).pdf
512090,AR,SALEM SCHOOL DISTRICT,-91.814866,36.359642,,,,,,,https://www.healthy.arkansas.gov/images/uploads/pdf/School_Report_09142020_(002).pdf
512180,AR,SCRANTON SCHOOL DISTRICT,-93.541496,35.361353,,,,,,,https://www.healthy.arkansas.gov/images/uploads/pdf/School_Report_09142020_(002).pdf
509480,AR,SEARCY COUNTY SCHOOL DISTRICT,-92.631115,35.90689,,,,,,,https://www.healthy.arkansas.gov/images/uploads/pdf/School_Report_09142020_(002).pdf
512210,AR,SEARCY SCHOOL DISTRICT,-91.740615,35.254412,,,,,,,https://www.healthy.arkansas.gov/images/uploads/pdf/School_Report_09142020_(002).pdf
500015,AR,SHERIDAN SCHOOL DISTRICT,-92.399017,34.30993,,,,,,,https://www.healthy.arkansas.gov/images/uploads/pdf/School_Report_09142020_(002).pdf
512420,AR,SHIRLEY SCHOOL DISTRICT,-92.313717,35.659477,,,,,,,https://www.healthy.arkansas.gov/images/uploads/pdf/School_Report_09142020_(002).pdf
512450,AR,SILOAM SPRINGS SCHOOL DISTRICT,-94.542372,36.184001,,,,,,,https://www.healthy.arkansas.gov/images/uploads/pdf/School_Report_09142020_(002).pdf
512480,AR,SLOAN-HENDRIX SCHOOL DIST.,-91.17785,36.202465,,,,,,,https://www.healthy.arkansas.gov/images/uploads/pdf/School_Report_09142020_(002).pdf
512510,AR,SMACKOVER SCHOOL DISTRICT,-92.724485,33.363565,,,,,7,9,https://www.healthy.arkansas.gov/images/uploads/pdf/School_Report_09142020_(002).pdf
512520,AR,SO. CONWAY CO. SCHOOL DISTRICT,-92.737798,35.149799,,,,,,,https://www.healthy.arkansas.gov/images/uploads/pdf/School_Report_09142020_(002).pdf
510320,AR,SOUTH PIKE COUNTY SCHOOL DISTRICT,-93.686231,34.057575,,,,,,,https://www.healthy.arkansas.gov/images/uploads/pdf/School_Report_09142020_(002).pdf
512570,AR,SOUTH SIDE SCHOOL DISTRICT,-92.389471,35.429963,,,,,,,https://www.healthy.arkansas.gov/images/uploads/pdf/School_Report_09142020_(002).pdf
512540,AR,SOUTHSIDE SCHOOL DISTRICT,-91.626842,35.699687,,,,,,,https://www.healthy.arkansas.gov/images/uploads/pdf/School_Report_09142020_(002).pdf
512630,AR,SPRING HILL SCHOOL DISTRICT,-93.651231,33.585444,,,,,,,https://www.healthy.arkansas.gov/images/uploads/pdf/School_Report_09142020_(002).pdf
512660,AR,SPRINGDALE SCHOOL DISTRICT,-94.13139,36.1818,,75,,15,19,,https://www.healthy.arkansas.gov/images/uploads/pdf/School_Report_09142020_(002).pdf
500028,AR,STAR CITY SCHOOL DISTRICT,-91.841284,33.940995,,,,,,,https://www.healthy.arkansas.gov/images/uploads/pdf/School_Report_09142020_(002).pdf
512930,AR,STRONG-HUTTIG SCHOOL DISTRICT,-92.35948,33.11052,,,,,,,https://www.healthy.arkansas.gov/images/uploads/pdf/School_Report_09142020_(002).pdf
512960,AR,STUTTGART SCHOOL DISTRICT,-91.553109,34.476411,,,,,,,https://www.healthy.arkansas.gov/images/uploads/pdf/School_Report_09142020_(002).pdf
513110,AR,TEXARKANA SCHOOL DISTRICT,-94.032467,33.457196,,7,,8,7,,https://www.healthy.arkansas.gov/images/uploads/pdf/School_Report_09142020_(002).pdf
500047,AR,TRUMANN SCHOOL DISTRICT,-90.517497,35.673382,,,,,,,https://www.healthy.arkansas.gov/images/uploads/pdf/School_Report_09142020_(002).pdf
500079,AR,TWO RIVERS SCHOOL DISTRICT,-93.293865,34.987357,,,,,,,https://www.healthy.arkansas.gov/images/uploads/pdf/School_Report_09142020_(002).pdf
513350,AR,VALLEY SPRINGS SCHOOL DISTRICT,-92.99388,36.15694,,,,,,,https://www.healthy.arkansas.gov/images/uploads/pdf/School_Report_09142020_(002).pdf
513380,AR,VALLEY VIEW SCHOOL DISTRICT,-90.742027,35.777748,,,,,9,22,https://www.healthy.arkansas.gov/images/uploads/pdf/School_Report_09142020_(002).pdf
513410,AR,VAN BUREN SCHOOL DISTRICT,-94.335094,35.45841,,43,,7,10,,https://www.healthy.arkansas.gov/images/uploads/pdf/School_Report_09142020_(002).pdf
513530,AR,VILONIA SCHOOL DISTRICT,-92.208496,35.088514,,,,,7,13,https://www.healthy.arkansas.gov/images/uploads/pdf/School_Report_09142020_(002).pdf
513560,AR,VIOLA SCHOOL DISTRICT,-91.98228,36.39465,,,,,,,https://www.healthy.arkansas.gov/images/uploads/pdf/School_Report_09142020_(002).pdf
513680,AR,WALDRON SCHOOL DISTRICT,-94.108129,34.896888,,,,,,,https://www.healthy.arkansas.gov/images/uploads/pdf/School_Report_09142020_(002).pdf
500006,AR,WARREN SCHOOL DISTRICT,-92.06456,33.61441,,,,,,,https://www.healthy.arkansas.gov/images/uploads/pdf/School_Report_09142020_(002).pdf
513930,AR,WATSON CHAPEL SCHOOL DISTRICT,-92.06821,34.187352,,23,,12,8,,https://www.healthy.arkansas.gov/images/uploads/pdf/School_Report_09142020_(002).pdf
514010,AR,WEST FORK SCHOOL DISTRICT,-94.190893,35.92208,,,,,,,https://www.healthy.arkansas.gov/images/uploads/pdf/School_Report_09142020_(002).pdf
508040,AR,WEST MEMPHIS SCHOOL DISTRICT,-90.193604,35.14363,,26,,5,8,,https://www.healthy.arkansas.gov/images/uploads/pdf/School_Report_09142020_(002).pdf
514040,AR,WEST SIDE SCHOOL DISTRICT,-92.165956,35.581228,,,,,,,https://www.healthy.arkansas.gov/images/uploads/pdf/School_Report_09142020_(002).pdf
500041,AR,WESTERN YELL CO. SCHOOL DIST.,-93.528335,35.109494,,,,,,,https://www.healthy.arkansas.gov/images/uploads/pdf/School_Report_09142020_(002).pdf
504020,AR,WESTSIDE CONS. SCHOOL DISTRICT,-90.803798,35.853901,,,,,,,https://www.healthy.arkansas.gov/images/uploads/pdf/School_Report_09142020_(002).pdf
514020,AR,WESTSIDE SCHOOL DISTRICT,-93.618364,35.43306,,,,,,,https://www.healthy.arkansas.gov/images/uploads/pdf/School_Report_09142020_(002).pdf
504170,AR,WHITE CO. CENTRAL SCHOOL DIST.,-91.676321,35.357683,,,,,1,1,https://www.healthy.arkansas.gov/images/uploads/pdf/School_Report_09142020_(002).pdf
514140,AR,WHITE HALL SCHOOL DISTRICT,-92.106761,34.286032,,,,,5,20,https://www.healthy.arkansas.gov/images/uploads/pdf/School_Report_09142020_(002).pdf
514370,AR,WONDERVIEW SCHOOL DISTRICT,-92.730728,35.326601,,,,,,,https://www.healthy.arkansas.gov/images/uploads/pdf/School_Report_09142020_(002).pdf
514400,AR,WOODLAWN SCHOOL DISTRICT,-92.040922,33.967432,,,,,,,https://www.healthy.arkansas.gov/images/uploads/pdf/School_Report_09142020_(002).pdf
514430,AR,WYNNE SCHOOL DISTRICT,-90.791005,35.226105,,20,,8,11,,https://www.healthy.arkansas.gov/images/uploads/pdf/School_Report_09142020_(002).pdf
514490,AR,YELLVILLE-SUMMIT SCHOOL DIST.,-92.690624,36.238268,,,,,,,https://www.healthy.arkansas.gov/images/uploads/pdf/School_Report_09142020_(002).pdf
400450,AZ,Agua Fria Union High School District (4289),-112.335907,33.45238,0,0,0,0,,,
400480,AZ,Aguila Elementary District (4249),-113.16453,33.93924,0,0,0,0,,,
400520,AZ,Ajo Unified District (4409),-112.860726,32.374142,0,0,0,0,,,
400600,AZ,Alhambra Elementary District (4280),-112.138595,33.502468,0,0,0,0,,,
400630,AZ,Alpine Elementary District (4161),-109.1465,33.84949,0,0,0,0,,,
404770,AZ,Altar Valley Elementary District (4418),-111.227935,32.092735,,,,,,,
400680,AZ,Amphitheater Unified District (4406),-110.982436,32.286473,0,0,0,0,,,
400720,AZ,Antelope Union High School District (4506),-114.025059,32.695099,0,0,0,0,,,
400750,AZ,Apache Elementary District (4178),-109.226625,32.268425,0,0,0,0,,,
400790,AZ,Apache Junction Unified District (4443),-111.563107,33.393261,0,0,0,0,,,
400840,AZ,Arlington Elementary District (4274),-112.815906,33.360931,0,0,0,0,,,
400870,AZ,Ash Creek Elementary District (4187),-109.63652,31.876267,0,0,0,0,,,
400910,AZ,Ash Fork Joint Unified District (4471),-112.598475,35.124393,0,0,0,0,,,
400960,AZ,Avondale Elementary District (4272),-112.352745,33.435271,0,0,0,0,,,
403950,AZ,Baboquivari Unified School District #40 (4412),-111.8675,31.914625,,,,,,,
401000,AZ,Bagdad Unified District (4468),-113.181786,34.567055,0,0,0,0,,,
401050,AZ,Balsz Elementary District (4268),-111.97743,33.458323,0,0,0,0,,,
401080,AZ,Beaver Creek Elementary District (4481),-111.766025,34.655566,0,0,0,0,,,
400212,AZ,Benson Unified School District (79226),-110.298321,31.965379,0,0,0,0,,,
401160,AZ,Bicentennial Union High School District (4515),-113.615185,33.754125,,,,,,,
401180,AZ,Bisbee Unified District (4169),-109.885505,31.428007,,,,,,,
401230,AZ,Blue Elementary District (4231),-109.107409,33.610992,,,,,,,
406580,AZ,Blue Ridge Unified School District No. 32 (4397),-109.96825,34.147628,,3,,,,,https://www.facebook.com/102721964605115/posts/203568351187142/
401260,AZ,Bonita Elementary District (4224),-109.97346,32.5871,,,,,,,
401290,AZ,Bouse Elementary District (4513),-114.006988,33.931206,,,,,,,
401330,AZ,Bowie Unified District (4171),-109.486535,32.327845,,,,,,,
401380,AZ,Buckeye Elementary District (4269),-112.600237,33.426253,,,,,,,
401410,AZ,Buckeye Union High School District (4284),-112.577074,33.374898,,,,,,,
401500,AZ,Bullhead City School District (4378),-114.612778,35.10791,,,,,,,
401600,AZ,Camp Verde Unified District (4470),-111.861033,34.58578,,,,,,,
401650,AZ,Canon Elementary District (4484),-112.149465,34.065285,,,,,,,
401680,AZ,Cartwright Elementary District (4282),-112.17145,33.495049,,,,,,,
401710,AZ,Casa Grande Elementary District (4446),-111.753904,32.908827,,,,,,,
401740,AZ,Casa Grande Union High School District (4453),-111.747837,32.886232,,,,,,,
401760,AZ,Catalina Foothills Unified District (4410),-110.940183,32.286952,,,,,,,
400001,AZ,Cave Creek Unified District (4244),-111.94328,33.833215,0,0,0,0,,,
401810,AZ,Cedar Unified District (4395),-110.410325,35.81195,,,,,,,
401870,AZ,Chandler Unified District #80 (4242),-111.868277,33.297956,,,,,,,
401920,AZ,Chevelon Butte School District (4198),-110.8011,34.33715,,,,,,,
401940,AZ,Chinle Unified District (4158),-109.603732,36.286582,,,,,,,
400003,AZ,Chino Valley Unified District (4474),-112.453998,34.746219,0,0,0,0,,,
400004,AZ,Clarkdale-Jerome Elementary District (4486),-112.065862,34.767765,0,0,0,0,,,
402130,AZ,Cochise Elementary District (4177),-109.90503,32.01682,,,,,,,
400163,AZ,Coconino County Accommodation School District (10386),-111.646226,35.199819,#N/A,#N/A,#N/A,#N/A,#N/A,#N/A,#N/A
400021,AZ,Colorado City Unified District (4370),-112.976315,36.991375,0,0,0,0,,,
400082,AZ,Colorado River Union High School District (4381),-114.6128,35.10411,0,0,0,0,,,
402190,AZ,Concho Elementary District (4160),-109.618754,34.462437,,,,,,,
402220,AZ,Congress Elementary District (4479),-112.85333,34.163655,,,,,,,
402250,AZ,Continental Elementary District (4416),-111.012649,31.829543,,,,,,,
402320,AZ,Coolidge Unified District (4442),-111.529122,32.981147,,,,,,,
402370,AZ,Cottonwood-Oak Creek Elementary District (4487),-112.026644,34.74013,,,,,,,
402400,AZ,Crane Elementary District (4501),-114.671143,32.698488,,,,,,,
402430,AZ,Creighton Elementary District (4263),-112.022289,33.485637,,,,,,,
402460,AZ,Crown King Elementary District (4483),-112.350695,34.206995,,,,,,,
407750,AZ,Deer Valley Unified District (4246),-112.093347,33.670783,,,,,,,
402490,AZ,Double Adobe Elementary District (4179),-109.698368,31.467469,,,,,,,
402530,AZ,Douglas Unified District (4174),-109.545,31.346597,,,,,,,
402600,AZ,Duncan Unified District (4228),-109.103523,32.717797,,,,,,,
402690,AZ,Dysart Unified District (4243),-112.3828,33.628433,,,,,,,
402760,AZ,Elfrida Elementary District (4185),-109.687425,31.6819,,,,,,,
402790,AZ,Eloy Elementary District (4448),-111.550486,32.760081,,,,,,,
402820,AZ,Empire Elementary District (4415),-110.713679,31.774962,,,,,,,
402860,AZ,Flagstaff Unified District (4192),-111.606942,35.198628,,,,,,,
402920,AZ,Florence Unified School District (4437),-111.41605,33.05598,,,,,,,
403010,AZ,Flowing Wells Unified District (4405),-110.998354,32.273755,,,,,,,
403150,AZ,Fort Huachuca Accommodation District (4167),-110.34628,31.55514,,,,,,,
403200,AZ,Fort Thomas Unified District (4221),-109.964684,33.036844,,,,,,,
403040,AZ,Fountain Hills Unified District (4247),-111.736317,33.615971,,,,,,,
403060,AZ,Fowler Elementary District (4273),-112.202631,33.432994,,,,,,,
403080,AZ,Fredonia-Moccasin Unified District (4195),-112.526419,36.95117,,,,,,,
403240,AZ,Gadsden Elementary District (4505),-114.78366,32.49385,,,,,,,
403290,AZ,Ganado Unified School District (4157),-109.53951,35.70902,,,,,,,
403310,AZ,Gila Bend Unified District (4238),-112.719055,32.946975,,,,,,,
400419,AZ,Gila County Regional School District (87600),-110.78913,33.39577,#N/A,#N/A,#N/A,#N/A,#N/A,#N/A,#N/A
403400,AZ,Gilbert Unified District (4239),-111.790768,33.347355,,,,,,,
403420,AZ,Glendale Elementary District (4271),-112.183663,33.544193,,,,,,,
403450,AZ,Glendale Union High School District (4285),-112.151538,33.54903,,,,,,,
403500,AZ,Globe Unified District (4208),-110.790652,33.397486,,,,,,,
402480,AZ,Graham County Special Services (4217),-109.829385,32.893505,#N/A,#N/A,#N/A,#N/A,#N/A,#N/A,#N/A
403550,AZ,Grand Canyon Unified District (4194),-112.110963,36.058235,,,,,,,
403660,AZ,Hackberry School District (4371),-113.77991,35.172996,,,,,,,
403730,AZ,Hayden-Winkelman Unified District (4212),-110.774583,32.989056,,,,,,,
400026,AZ,Heber-Overgaard Unified District (4392),-110.59807,34.418087,0,0,0,0,,,
403780,AZ,Higley Unified School District (4248),-111.703632,33.295724,,,,,,,
408460,AZ,Hillside Elementary District (4482),-113.16738,34.57864,,,,,,,
403820,AZ,Holbrook Unified District (4389),-110.16209,34.906485,,,,,,,
403870,AZ,Humboldt Unified District (4469),-112.318507,34.629266,,,,,,,
403900,AZ,Hyder Elementary District (4502),-113.42245,32.90246,,,,,,,
403960,AZ,Isaac Elementary District (4259),-112.131555,33.467461,,,,,,,
403990,AZ,J O Combs Unified School District (4445),-111.545945,33.273051,,,,,,,
404010,AZ,Joseph City Unified District (4388),-110.33377,34.956005,,,,,,,
404060,AZ,Kayenta Unified School District #27 (4396),-110.24899,36.71051,,,,,,,
400295,AZ,Kingman Unified School District (79598),-114.03141,35.216219,0,0,0,0,,,
404170,AZ,Kirkland Elementary District (4480),-112.59355,34.42652,,,,,,,
404200,AZ,Klondyke Elementary District (4223),-109.718113,32.834793,,,,,,,
404230,AZ,Kyrene Elementary District (4267),-111.945703,33.337343,,,,,,,
404280,AZ,Lake Havasu Unified District (4368),-114.33113,34.497992,,,,,,,
404290,AZ,Laveen Elementary District (4276),-112.167372,33.362881,,,,,,,
404320,AZ,Liberty Elementary District (4266),-112.486334,33.380614,,,,,,,
404380,AZ,Litchfield Elementary District (4281),-112.35581,33.491318,,,,,,,
404410,AZ,Littlefield Unified District (4374),-113.934518,36.91231,,,,,,,
404440,AZ,Littleton Elementary District (4278),-112.298026,33.431895,,,,,,,
404500,AZ,Madison Elementary District (4270),-112.047473,33.517733,,,,,,,
404530,AZ,Maine Consolidated School District (4199),-111.948675,35.27846,,,,,,,
404570,AZ,Mammoth-San Manuel Unified District (4439),-110.628699,32.606315,,,,,,,
404630,AZ,Marana Unified District (4404),-111.20539,32.453333,,,,,,,
403860,AZ,Maricopa County Regional School District (4234),-112.132253,33.48958,#N/A,#N/A,#N/A,#N/A,#N/A,#N/A,#N/A
409700,AZ,Maricopa County Regional Special Services District (4233),-112.073681,33.493998,#N/A,#N/A,#N/A,#N/A,#N/A,#N/A,#N/A
404720,AZ,Maricopa Unified School District (4441),-112.041633,33.054542,,,,,,,
402740,AZ,Mary C O'Brien Accommodation District (4435),-111.75051,32.881685,#N/A,#N/A,#N/A,#N/A,#N/A,#N/A,#N/A
404820,AZ,Mayer Unified School District (4473),-112.1492,34.34044,,,,,,,
404860,AZ,Mcnary Elementary District (4163),-109.853558,34.07303,,,,,,,
404920,AZ,McNeal Elementary District (4181),-109.691415,31.46696,,,,,,,
404970,AZ,Mesa Unified District (4235),-111.829269,33.414697,,,,,,,
405030,AZ,Miami Unified District (4211),-110.874128,33.39486,,,,,,,
405070,AZ,Mingus Union High School District (4488),-112.004999,34.717507,,,,,,,
405100,AZ,Mobile Elementary District (4253),-112.271737,33.056358,,,,,,,
405190,AZ,Mohave Valley Elementary District (4379),-114.604554,34.923221,,,,,,,
405220,AZ,Mohawk Valley Elementary District (4503),-113.970705,32.751397,,,,,,,
405320,AZ,Morenci Unified District (4230),-109.31777,33.04151,,,,,,,
405340,AZ,Morristown Elementary District (4251),-112.609657,33.853533,,,,,,,
405400,AZ,Murphy Elementary District (4265),-112.116074,33.436741,,,,,,,
405430,AZ,Naco Elementary District (4176),-109.948445,31.337375,,,,,,,
405460,AZ,Nadaburg Unified School District (4252),-112.525792,33.78146,,,,,,,
405500,AZ,Navajo County Accommodation District #99 (4386),-110.145583,34.929494,#N/A,#N/A,#N/A,#N/A,#N/A,#N/A,#N/A
405530,AZ,Nogales Unified District (4457),-110.941359,31.339976,,,,,,,
405640,AZ,Oracle Elementary District (4444),-110.760527,32.608442,,,,,,,
405670,AZ,Osborn Elementary District (4262),-112.089234,33.487791,,,,,,,
405730,AZ,Owens School District No.6 (4373),-113.60958,34.699705,,,,,,,
405820,AZ,Page Unified District (4196),-111.47018,36.92445,,,,,,,
405850,AZ,Palo Verde Elementary District (4275),-112.677695,33.34841,,,,,,,
408430,AZ,Paloma School District (4255),-112.890932,32.920473,,,,,,,
405880,AZ,Palominas Elementary District (4180),-110.24077,31.43524,,,,,,,
405930,AZ,Paradise Valley Unified District (4241),-112.0134,33.622732,,,,,,,
405980,AZ,Parker Unified School District (4510),-114.26148,34.16108,,,,,,,
406000,AZ,Patagonia Elementary District (4460),-110.75391,31.539805,,,,,,,
406030,AZ,Patagonia Union High School District (4462),-110.75391,31.539805,,,,,,,
406070,AZ,Payson Unified District (4209),-111.324965,34.23206,,,,,,,
406120,AZ,Peach Springs Unified District (4369),-113.42675,35.52892,,,,,,,
406150,AZ,Pearce Elementary District (4186),-109.823868,31.901177,,,,,,,
406210,AZ,Pendergast Elementary District (4283),-112.255227,33.490547,,,,,,,
406250,AZ,Peoria Unified School District (4237),-112.242015,33.58253,,,,,,,
406300,AZ,Phoenix Elementary District (4256),-112.064326,33.468793,,,,,,,
406330,AZ,Phoenix Union High School District (4286),-112.074739,33.502337,,,,,,,
406360,AZ,Picacho Elementary District (4452),-111.38455,32.66005,,,,,,,
405360,AZ,Pima Accommodation District (4401),-110.973293,32.221746,#N/A,#N/A,#N/A,#N/A,#N/A,#N/A,#N/A
406440,AZ,Pima Unified District (4220),-109.829385,32.893505,,,,,,,
406510,AZ,Pine Strawberry Elementary District (4214),-111.47699,34.39557,,,,,,,
400023,AZ,Pinon Unified District (4390),-110.288699,36.227034,0,0,0,0,,,
406630,AZ,Pomerene Elementary District (4188),-110.29008,32.00036,,,,,,,
406730,AZ,Prescott Unified District (4466),-112.465373,34.54246,,,,,,,
406780,AZ,Quartzsite Elementary District (4511),-114.50606,33.61773,,,,,,,
406810,AZ,Queen Creek Unified District (4245),-111.646437,33.234042,,,,,,,
406850,AZ,Ray Unified District (4438),-110.95994,33.10526,,,,,,,
406870,AZ,Red Mesa Unified District (4159),-109.08697,36.9206,,,,,,,
406900,AZ,Red Rock Elementary District (4447),-111.34031,32.56822,,,,,,,
406930,AZ,Redington Elementary District (4417),-110.973293,32.221746,,,,,,,
407020,AZ,Riverside Elementary District (4257),-112.169247,33.433683,,,,,,,
407080,AZ,Roosevelt Elementary District (4279),-112.064738,33.392184,,,,,,,
407130,AZ,Round Valley Unified District (4155),-109.2803,34.130765,,,,,,,
407200,AZ,Sacaton Elementary District (4449),-111.75794,33.0741,,,,,,,
407170,AZ,Saddle Mountain Unified School District (4254),-112.873128,33.491824,,,,,,,
407240,AZ,Safford Unified District (4218),-109.71466,32.827678,,,,,,,
407300,AZ,Sahuarita Unified District (4411),-110.977999,31.959036,,,,,,,
400005,AZ,Salome Consolidated Elementary District (4514),-113.615185,33.754125,0,0,0,0,,,
406960,AZ,San Carlos Unified District (4210),-110.452469,33.351019,,,,,,,
407380,AZ,San Fernando Elementary District (4414),-111.542931,31.487721,,,,,,,
407430,AZ,San Simon Unified District (4172),-109.226625,32.268425,,,,,,,
406740,AZ,Sanders Unified District (4156),-109.33294,35.21512,,,,,,,
407500,AZ,Santa Cruz Elementary District (4459),-110.90582,31.39246,,,,,,,
407520,AZ,Santa Cruz Valley Unified District (4458),-111.012747,31.50463,,,,,,,
407530,AZ,Santa Cruz Valley Union High School District (4454),-111.556905,32.759041,,,,,,,
407570,AZ,Scottsdale Unified District (4240),-111.918585,33.493051,,,,,,,
409733,AZ,Sedona-Oak Creek JUSD #9 (4467),-111.766038,34.863026,,,,,,,
407630,AZ,Seligman Unified District (4472),-112.882943,35.328297,,,,,,,
407680,AZ,Sentinel Elementary District (4250),-113.517705,32.829185,,,,,,,
407700,AZ,Show Low Unified District (4393),-110.04724,34.256978,,,,,,,
401460,AZ,Sierra Vista Unified District (4175),-110.261706,31.554697,,,,,,,
407770,AZ,Skull Valley Elementary District (4478),-112.685718,34.504277,,,,,,,
407820,AZ,Snowflake Unified District (4391),-110.08967,34.505176,,,,,,,
407860,AZ,Solomon Elementary District (4222),-109.63019,32.81645,,,,,,,
407890,AZ,Somerton Elementary District (4500),-114.68264,32.59178,,,,,,,
407920,AZ,Sonoita Elementary District (4461),-110.60168,31.659042,,,,,,,
408020,AZ,St David Unified District (4173),-110.219345,31.90222,,,,,,,
408080,AZ,St Johns Unified District (4153),-109.37731,34.50571,,,,,,,
408130,AZ,Stanfield Elementary District (4451),-111.963673,32.875944,,,,,,,
408170,AZ,Sunnyside Unified District (4407),-110.93862,32.137632,,,,,,,
408230,AZ,Superior Unified School District (4440),-111.113794,33.279095,,,,,,,
408280,AZ,Tanque Verde Unified District (4408),-110.755547,32.250017,,,,,,,
408310,AZ,Tempe School District (4258),-111.93551,33.39282,,,,,,,
408340,AZ,Tempe Union High School District (4287),-111.950483,33.365342,,,,,,,
408410,AZ,Thatcher Unified District (4219),-109.760005,32.84915,,,,,,,
408490,AZ,Tolleson Elementary District (4264),-112.259386,33.450281,,,,,,,
408520,AZ,Tolleson Union High School District (4288),-112.2704,33.450173,,,,,,,
408550,AZ,Toltec School District (4450),-111.619458,32.78371,,,,,,,
408600,AZ,Tombstone Unified District (4168),-110.05354,31.70316,,,,,,,
405760,AZ,Tonto Basin Elementary District (4215),-111.29398,33.867957,,,,,,,
408640,AZ,Topock Elementary District (4376),-114.480945,34.78049,,,,,,,
408680,AZ,Tuba City Unified School District #15 (4197),-111.23991,36.130635,,,,,,,
408800,AZ,Tucson Unified District (4403),-110.955864,32.222174,,,,,,,
408820,AZ,Union Elementary District (4277),-112.256392,33.4109,,,,,,,
408850,AZ,Vail Unified District (4413),-110.696458,32.06388,,,,,,,
408880,AZ,Valentine Elementary District (4380),-113.42738,35.52885,,,,,,,
408910,AZ,Valley Union High School District (4190),-109.687425,31.6819,,,,,,,
400022,AZ,Vernon Elementary District (4162),-109.69311,34.254525,0,0,0,0,,,
409030,AZ,Walnut Grove Elementary District (4476),-112.59355,34.42652,,,,,,,
409060,AZ,Washington Elementary School District (4260),-112.15887,33.603601,,,,,,,
409090,AZ,Wellton Elementary District (4504),-114.129257,32.672191,,,,,,,
409120,AZ,Wenden Elementary District (4512),-113.542337,33.821964,,,,,,,
409160,AZ,Whiteriver Unified District (4394),-109.979932,33.822213,,,,,,,
409190,AZ,Wickenburg Unified District (4236),-112.729021,33.968142,,,,,,,
409250,AZ,Willcox Unified District (4170),-109.841435,32.259242,,,,,,,
409310,AZ,Williams Unified District (4193),-112.191055,35.25021,,,,,,,
409360,AZ,Williamson Valley Elementary School District (4475),-112.501394,34.647485,,,,,,,
409390,AZ,Wilson Elementary District (4261),-112.016124,33.45487,,,,,,,
409430,AZ,Window Rock Unified District (4154),-109.08318,35.78795,,,,,,,
409460,AZ,Winslow Unified District (4387),-110.696605,35.029215,,,,,,,
409510,AZ,Yarnell Elementary District (4485),-112.74974,34.274286,,,,,,,
400315,AZ,Yavapai Accommodation School District (79379),-112.410605,34.629138,#N/A,#N/A,#N/A,#N/A,#N/A,#N/A,#N/A
409540,AZ,Young Elementary District (4213),-110.941932,34.098419,,,,,,,
409570,AZ,Yucca Elementary District (4377),-114.148205,34.86976,,,,,,,
409600,AZ,Yuma Elementary District (4499),-114.625386,32.716124,,,,,,,
409630,AZ,Yuma Union High School District (4507),-114.634479,32.707676,,,,,,,
601620,CA,ABC Unified,-118.071242,33.879713,0,0,0,0,,,
601650,CA,Acalanes Union High,-122.099487,37.904998,0,0,0,0,,,
600001,CA,Acton-Agua Dulce Unified,-118.197228,34.472959,0,0,0,0,,,
601710,CA,Adelanto Elementary,-117.405986,34.57207,0,0,0,0,,,
691051,CA,Alameda County Office of Education,-122.098383,37.658469,0,0,0,0,,,
601770,CA,Alameda Unified,-122.270022,37.782159,0,0,0,0,,,
601860,CA,Albany City Unified,-122.296007,37.890252,0,0,0,0,,,
601890,CA,Alexander Valley Union Elementary,-122.793526,38.655707,0,0,0,0,,,
600153,CA,Alhambra Unified,-118.139769,34.082571,0,0,0,0,,,
601950,CA,Alisal Union,-121.605284,36.67772,0,0,0,0,,,
601980,CA,Allensworth Elementary,-119.38623,35.8661,0,0,0,0,,,
602010,CA,Alpaugh Unified,-119.48791,35.887685,0,0,0,0,,,
691058,CA,Alpine County Office of Education,-119.807604,38.766542,0,0,0,0,,,
602070,CA,Alpine County Unified,-119.807604,38.766542,0,0,0,0,,,
602100,CA,Alpine Union Elementary,-116.775393,32.824566,0,0,0,0,,,
602160,CA,Alta Loma Elementary,-117.600095,34.12278,0,0,0,0,,,
602220,CA,Alta Vista Elementary,-118.965414,36.058645,0,0,0,0,,,
602250,CA,Alta-Dutch Flat Union Elementary,-120.816648,39.209095,0,0,0,0,,,
602310,CA,Alum Rock Union Elementary,-121.834126,37.369344,0,0,0,0,,,
602360,CA,Alview-Dairyland Union Elementary,-120.31175,37.018228,0,0,0,0,,,
602430,CA,Alvord Unified,-117.514536,33.886755,0,0,0,0,,,
691001,CA,Amador County Office of Education,-120.777204,38.352596,0,0,0,0,,,
602450,CA,Amador County Unified,-120.777204,38.352596,0,0,0,0,,,
602610,CA,Anaheim Elementary,-117.89686,33.82022,0,0,0,0,,,
602630,CA,Anaheim Union High,-117.93734,33.84133,0,0,0,0,,,
602700,CA,Anderson Union High,-122.306024,40.441806,0,0,0,0,,,
602730,CA,Anderson Valley Unified,-123.382575,39.017815,0,0,0,0,,,
602760,CA,Antelope Elementary,-122.19436,40.185777,,,,,,,
602820,CA,Antelope Valley Union High,-118.136748,34.696884,,,,,,,
602850,CA,Antioch Unified,-121.813789,38.014425,,,,,,,
600017,CA,Apple Valley Unified,-117.190145,34.479877,,,,,,,
602970,CA,Arcadia Unified,-118.023552,34.138277,,,,,,,
603000,CA,Arcata Elementary,-124.066904,40.857298,,,,,,,
603060,CA,Arcohe Union Elementary,-121.16244,38.335885,,,,,,,
603180,CA,Armona Union Elementary,-119.709075,36.31117,,,,,,,
691136,CA,Aromas - San Juan Unified,-121.5549,36.882585,,,,,,,
603270,CA,Arvin Union,-118.83206,35.208992,,,,,,,
603300,CA,Atascadero Unified,-120.665705,35.492612,,,,,,,
603420,CA,Atwater Elementary,-120.61179,37.34796,,,,,,,
603480,CA,Auburn Union Elementary,-121.073013,38.906288,,,,,,,
603600,CA,Azusa Unified,-117.90243,34.13037,,,,,,,
603610,CA,Baker Valley Unified,-115.508374,34.945663,,,,,,,
603630,CA,Bakersfield City,-118.991632,35.382691,,,,,,,
603690,CA,Baldwin Park Unified,-117.96148,34.080045,,,,,,,
603720,CA,Ballard Elementary,-120.11421,34.638747,,,,,,,
603750,CA,Ballico-Cressey Elementary,-120.700123,37.45436,,,,,,,
603780,CA,Bangor Union Elementary,-121.362102,39.423815,,,,,,,
603840,CA,Banning Unified,-116.878477,33.927239,,,,,,,
603870,CA,Banta Elementary,-121.372983,37.754931,,,,,,,
604020,CA,Barstow Unified,-117.047496,34.890381,,,,,,,
604080,CA,Bass Lake Joint Union Elementary,-119.639266,37.331412,,,,,,,
604110,CA,Bassett Unified,-117.972116,34.052715,,,,,,,
604200,CA,Bayshore Elementary,-122.413711,37.705837,,,,,,,
604230,CA,Bear Valley Unified,-116.88608,34.24417,,,,,,,
604260,CA,Beardsley Elementary,-119.040681,35.408579,,,,,,,
604290,CA,Beaumont Unified,-116.97717,33.933125,,,,,,,
604350,CA,Bella Vista Elementary,-122.233802,40.63823,,,,,,,
604500,CA,Belleview Elementary,-120.270684,38.063296,,,,,,,
604380,CA,Bellevue Union,-122.70894,38.40162,,,,,,,
604440,CA,Bellflower Unified,-118.134017,33.8829,,,,,,,
604530,CA,Belmont-Redwood Shores Elementary,-122.3192,37.509511,,,,,,,
604560,CA,Belridge Elementary,-119.763223,35.443642,,,,,,,
604620,CA,Benicia Unified,-122.151401,38.050724,,,,,,,
604650,CA,Bennett Valley Union Elementary,-122.673415,38.42884,,,,,,,
604740,CA,Berkeley Unified,-122.287465,37.869253,,,,,,,
604800,CA,Berryessa Union Elementary,-121.848984,37.404048,,,,,,,
604830,CA,Beverly Hills Unified,-118.41003,34.062407,,,,,,,
604860,CA,Big Creek Elementary,-119.249956,37.202848,,,,,,,
604890,CA,Big Lagoon Union Elementary,-124.130336,41.157165,,,,,,,
691137,CA,Big Oak Flat-Groveland Unified,-120.220548,37.858104,,,,,,,
604950,CA,Big Pine Unified,-118.289487,37.162065,,,,,,,
604980,CA,Big Springs Union Elementary,-122.404319,41.624077,,,,,,,
600031,CA,Big Sur Unified,-121.422658,35.917083,,,,,,,
605010,CA,Big Valley Joint Unified,-121.13969,41.12034,,,,,,,
605040,CA,Biggs Unified,-121.703089,39.415002,,,,,,,
601409,CA,Bishop Unified,-118.398215,37.36326,,,,,,,
605190,CA,Bitterwater-Tully Elementary,-121.13068,36.214695,,,,,,,
605220,CA,Black Butte Union Elementary,-121.936168,40.513585,,,,,,,
605240,CA,Black Oak Mine Unified,-120.831139,38.911964,,,,,,,
605250,CA,Blake Elementary,-118.837172,35.703843,,,,,,,
605280,CA,Blochman Union Elementary,-120.294974,34.86595,,,,,,,
605400,CA,Blue Lake Union Elementary,-123.85019,40.93011,,,,,,,
605490,CA,Bogus Elementary,-122.36177,41.927656,,,,,,,
605520,CA,Bolinas-Stinson Union,-122.692565,37.917705,,,,,,,
605610,CA,Bonita Unified,-117.808124,34.117587,,,,,,,
605640,CA,Bonny Doon Union Elementary,-122.148249,37.061189,,,,,,,
601426,CA,Bonsall Unified,-117.220766,33.287237,,,,,,,
605700,CA,Borrego Springs Unified,-116.346825,33.255189,,,,,,,
605730,CA,Bradley Union Elementary,-121.135505,35.828579,,,,,,,
605790,CA,Brawley Elementary,-115.53767,32.980877,,,,,,,
605820,CA,Brawley Union High,-115.534923,32.982837,,,,,,,
605880,CA,Brea-Olinda Unified,-117.89013,33.917735,,,,,,,
605910,CA,Brentwood Union Elementary,-121.682697,37.92232,,,,,,,
605940,CA,Bret Harte Union High,-120.552647,38.078263,,,,,,,
606000,CA,Bridgeville Elementary,-123.696422,40.456357,,,,,,,
606030,CA,Briggs Elementary,-119.141145,34.328415,,,,,,,
606060,CA,Brisbane Elementary,-122.406251,37.685082,,,,,,,
606090,CA,Brittan Elementary,-121.746625,39.162171,,,,,,,
606100,CA,Browns Elementary,-121.524522,38.946897,,,,,,,
606270,CA,Buckeye Union Elementary,-121.081944,38.712509,,,,,,,
606330,CA,Buellton Union Elementary,-120.199509,34.617936,,,,,,,
606360,CA,Buena Park Elementary,-118.015159,33.858912,,,,,,,
606420,CA,Buena Vista Elementary,-119.439118,36.182527,,,,,,,
606450,CA,Burbank Unified,-118.324648,34.165279,,,,,,,
606480,CA,Burlingame Elementary,-122.385938,37.591977,,,,,,,
606510,CA,Burnt Ranch Elementary,-123.483884,40.823384,,,,,,,
606540,CA,Burrel Union Elementary,-119.98981,36.491206,,,,,,,
606570,CA,Burton Elementary,-119.07078,36.070888,,,,,,,
691002,CA,Butte County Office of Education,-121.556567,39.512619,,,,,,,
606580,CA,Butte Valley Unified,-121.960056,41.994474,,,,,,,
606690,CA,Butteville Union Elementary,-122.431744,41.456974,,,,,,,
606720,CA,Buttonwillow Union Elementary,-119.47652,35.399267,,,,,,,
606750,CA,Byron Union Elementary,-121.641488,37.877138,,,,,,,
606780,CA,Cabrillo Unified,-122.435624,37.462404,,,,,,,
606810,CA,Cajon Valley Union,-116.96694,32.79262,,,,,,,
691003,CA,Calaveras County Office of Education,-120.552647,38.078263,,,,,,,
606870,CA,Calaveras Unified,-120.682251,38.198292,,,,,,,
606900,CA,Calexico Unified,-115.482607,32.676028,,,,,,,
606960,CA,Caliente Union Elementary,-118.385774,35.346989,,,,,,,
606990,CA,Calipatria Unified,-115.521518,33.125672,,,,,,,
607020,CA,Calistoga Joint Unified,-122.581484,38.583197,,,,,,,
607140,CA,Cambrian,-121.940478,37.257074,,,,,,,
607170,CA,Camino Union Elementary,-120.675975,38.732169,,,,,,,
607200,CA,Campbell Union,-121.947308,37.289469,,,,,,,
607230,CA,Campbell Union High,-121.931514,37.265268,,,,,,,
607260,CA,Camptonville Elementary,-120.996396,39.522468,,,,,,,
607350,CA,Canyon Elementary,-122.166067,37.83013,,,,,,,
607410,CA,Capay Joint Union Elementary,-122.08417,39.796987,,,,,,,
607440,CA,Capistrano Unified,-117.669895,33.479984,,,,,,,
607470,CA,Cardiff Elementary,-117.282488,33.025181,,,,,,,
607500,CA,Carlsbad Unified,-117.266791,33.122801,,,,,,,
607530,CA,Carmel Unified,-121.90593,36.53836,,,,,,,
607560,CA,Carpinteria Unified,-119.516039,34.403806,,,,,,,
600067,CA,Caruthers Unified,-119.837775,36.538715,,,,,,,
607680,CA,Cascade Union Elementary,-122.306587,40.447858,,,,,,,
607740,CA,Castaic Union,-118.626607,34.440668,,,,,,,
607770,CA,Castle Rock Union Elementary,-122.30801,41.1509,,,,,,,
607800,CA,Castro Valley Unified,-122.080915,37.69629,,,,,,,
607840,CA,Cayucos Elementary,-120.904471,35.451516,,,,,,,
607900,CA,Center Joint Unified,-121.390833,38.721878,,,,,,,
607920,CA,Centinela Valley Union High,-118.361377,33.896363,,,,,,,
607950,CA,Central Elementary,-117.571729,34.113007,,,,,,,
607970,CA,Central Unified,-119.889546,36.802014,,,,,,,
607980,CA,Central Union Elementary,-119.780786,36.24409,,,,,,,
608010,CA,Central Union High,-115.550821,32.781392,,,,,,,
608070,CA,Centralia Elementary,-118.018298,33.846682,,,,,,,
608130,CA,Ceres Unified,-120.975355,37.58762,,,,,,,
608160,CA,Chaffey Joint Union High,-117.653705,34.081512,,,,,,,
608190,CA,Charter Oak Unified,-117.857789,34.10298,,,,,,,
608250,CA,Chatom Union,-120.931806,37.482326,,,,,,,
600116,CA,Chawanakee Unified,-119.509449,37.224649,,,,,,,
608340,CA,Chicago Park Elementary,-120.97747,39.145033,,,,,,,
608370,CA,Chico Unified,-121.825845,39.734023,,,,,,,
608460,CA,Chino Valley Unified,-117.691803,34.019121,,,,,,,
608520,CA,Chowchilla Elementary,-120.26577,37.11838,,,,,,,
608550,CA,Chowchilla Union High,-120.262652,37.116424,,,,,,,
608580,CA,Chualar Union,-121.51713,36.57065,,,,,,,
608610,CA,Chula Vista Elementary,-117.058189,32.632032,,,,,,,
608640,CA,Cienega Union Elementary,-121.361005,36.730155,,,,,,,
608700,CA,Cinnabar Elementary,-122.664326,38.25713,,,,,,,
608760,CA,Claremont Unified,-117.716509,34.083095,,,,,,,
608850,CA,Clay Joint Elementary,-119.503445,36.555881,,,,,,,
608880,CA,Clear Creek Elementary,-121.14317,39.1422,,,,,,,
608970,CA,Cloverdale Unified,-123.021858,38.810438,,,,,,,
609030,CA,Clovis Unified,-119.690341,36.837373,,,,,,,
609070,CA,Coachella Valley Unified,-116.157726,33.652868,,,,,,,
609120,CA,Coalinga-Huron Unified,-120.364012,36.142367,,,,,,,
600049,CA,Coast Unified,-121.089427,35.562693,,,,,,,
609240,CA,Coffee Creek Elementary,-122.6891,41.07955,,,,,,,
609270,CA,Cold Spring Elementary,-119.661251,34.441099,,,,,,,
609300,CA,Colfax Elementary,-120.960888,39.105441,,,,,,,
609330,CA,College Elementary,-120.08281,34.615818,,,,,,,
609390,CA,Colton Joint Unified,-117.333654,34.079665,,,,,,,
609450,CA,Columbia Elementary,-122.307385,40.582415,,,,,,,
609480,CA,Columbia Union,-120.406113,38.031157,,,,,,,
609510,CA,Columbine Elementary,-119.214672,35.831088,,,,,,,
691004,CA,Colusa County Office of Education,-122.008528,39.212497,,,,,,,
609570,CA,Colusa Unified,-122.016529,39.210747,,,,,,,
609620,CA,Compton Unified,-118.216236,33.892301,,,,,,,
609640,CA,Conejo Valley Unified,-118.85426,34.198453,,,,,,,
691005,CA,Contra Costa County Office of Education,-122.069599,37.934319,,,,,,,
609690,CA,Corcoran Joint Unified,-119.56646,36.101718,,,,,,,
609780,CA,Corning Union Elementary,-122.18623,39.92582,,,,,,,
609810,CA,Corning Union High,-122.17314,39.935043,,,,,,,
609850,CA,Corona-Norco Unified,-117.561039,33.922884,,,,,,,
609870,CA,Coronado Unified,-117.187196,32.696167,,,,,,,
609940,CA,Cotati-Rohnert Park Unified,-122.699743,38.339073,,,,,,,
609990,CA,Cottonwood Union Elementary,-122.291527,40.385745,,,,,,,
610050,CA,Covina-Valley Unified,-117.880739,34.086329,,,,,,,
616300,CA,Cucamonga Elementary,-117.594781,34.094343,,,,,,,
610230,CA,Cuddeback Union Elementary,-123.837622,40.463552,,,,,,,
610260,CA,Culver City Unified,-118.393899,34.022306,,,,,,,
610290,CA,Cupertino Union,-122.026777,37.326608,,,,,,,
610320,CA,Curtis Creek Elementary,-120.308836,37.963137,,,,,,,
610350,CA,Cutler-Orosi Joint Unified,-119.290916,36.544765,,,,,,,
610380,CA,Cutten Elementary,-124.143036,40.76648,,,,,,,
600009,CA,Cuyama Joint Unified,-119.608195,34.934243,,,,,,,
610440,CA,Cypress Elementary,-118.045713,33.824974,,,,,,,
610620,CA,Davis Joint Unified,-121.745568,38.547047,,,,,,,
610680,CA,Death Valley Unified,-116.230906,35.875143,,,,,,,
610710,CA,Dehesa Elementary,-116.851144,32.781277,,,,,,,
610740,CA,Del Mar Union Elementary,-117.231788,32.923647,,,,,,,
691063,CA,Del Norte County Office of Education,-124.20675,41.772742,,,,,,,
610770,CA,Del Norte County Unified,-124.20675,41.772742,,,,,,,
610860,CA,Delano Joint Union High,-119.240896,35.777799,,,,,,,
610890,CA,Delano Union Elementary,-119.23884,35.772897,,,,,,,
600039,CA,Delhi Unified,-120.778642,37.429925,,,,,,,
610980,CA,Delphic Elementary,-122.564105,41.70539,,,,,,,
611040,CA,Denair Unified,-120.802127,37.526937,,,,,,,
611100,CA,Desert Center Unified,-115.394927,33.738768,,,,,,,
611110,CA,Desert Sands Unified,-116.277486,33.714219,,,,,,,
611130,CA,Di Giorgio Elementary,-118.7861,35.238403,,,,,,,
600065,CA,Dinuba Unified,-119.381067,36.545561,,,,,,,
611280,CA,Dixon Unified,-121.822766,38.444714,,,,,,,
600033,CA,Dos Palos Oro Loma Joint Unified,-120.628689,36.984822,,,,,,,
611430,CA,Douglas City Elementary,-122.94332,40.652803,,,,,,,
611460,CA,Downey Unified,-118.13148,33.94062,,,,,,,
611490,CA,Dry Creek Joint Elementary,-121.336874,38.738754,,,,,,,
611520,CA,Duarte Unified,-117.97,34.13955,,,,,,,
600019,CA,Dublin Unified,-121.931021,37.716376,,,,,,,
611550,CA,Ducor Union Elementary,-119.048145,35.8917,,,,,,,
611610,CA,Dunham Elementary,-122.757964,38.321177,,,,,,,
611670,CA,Dunsmuir Elementary,-122.275056,41.226959,,,,,,,
611700,CA,Dunsmuir Joint Union High,-122.275966,41.210129,,,,,,,
611730,CA,Durham Unified,-121.80525,39.645823,,,,,,,
611760,CA,Earlimart Elementary,-119.27436,35.88611,,,,,,,
611780,CA,East Nicolaus Joint Union High,-121.52636,38.910594,,,,,,,
611820,CA,East Side Union High,-121.854504,37.381311,,,,,,,
611850,CA,East Whittier City Elementary,-118.014836,33.953117,,,,,,,
611870,CA,Eastern Sierra Unified,-119.22477,38.256175,,,,,,,
611910,CA,Eastside Union Elementary,-118.077014,34.699989,,,,,,,
611940,CA,Edison Elementary,-118.87652,35.34896,,,,,,,
612030,CA,El Centro Elementary,-115.56625,32.79389,,,,,,,
691006,CA,El Dorado County Office of Education,-120.866556,38.720337,,,,,,,
612070,CA,El Dorado Union High,-120.823785,38.694723,,,,,,,
612090,CA,El Monte City,-118.039336,34.073399,,,,,,,
612120,CA,El Monte Union High,-118.030724,34.071681,,,,,,,
612150,CA,El Nido Elementary,-120.4891,37.134787,,,,,,,
612180,CA,El Rancho Unified,-118.081588,33.994851,,,,,,,
612210,CA,El Segundo Unified,-118.411317,33.924203,,,,,,,
600026,CA,El Tejon Unified,-118.884845,34.816795,,,,,,,
612330,CA,Elk Grove Unified,-121.372346,38.41301,,,,,,,
612360,CA,Elk Hills Elementary,-119.350959,35.297589,,,,,,,
612420,CA,Elkins Elementary,-122.620693,39.905293,,,,,,,
612600,CA,Elverta Joint Elementary,-121.462846,38.711785,,,,,,,
612630,CA,Emery Unified,-122.281734,37.836535,,,,,,,
612690,CA,Empire Union Elementary,-120.92996,37.639082,,,,,,,
612750,CA,Encinitas Union Elementary,-117.238243,33.036917,,,,,,,
612810,CA,Enterprise Elementary,-122.349431,40.578387,,,,,,,
612840,CA,Escalon Unified,-120.994401,37.798685,,,,,,,
612880,CA,Escondido Union,-117.114029,33.118113,,,,,,,
612910,CA,Escondido Union High,-117.050725,33.135932,,,,,,,
612930,CA,Esparto Unified,-122.015606,38.691028,,,,,,,
612960,CA,Etiwanda Elementary,-117.51454,34.14438,,,,,,,
600052,CA,Eureka City Schools,-124.159007,40.788603,,,,,,,
613080,CA,Eureka Union,-121.199282,38.736327,,,,,,,
613140,CA,Evergreen Elementary,-121.786814,37.324781,,,,,,,
613170,CA,Evergreen Union,-122.32638,40.35878,,,,,,,
601423,CA,Exeter Unified,-119.132479,36.299623,,,,,,,
613290,CA,Fairfax Elementary,-118.933003,35.341281,,,,,,,
613360,CA,Fairfield-Suisun Unified,-122.052203,38.275767,,,,,,,
613470,CA,Fall River Joint Unified,-121.672028,40.880057,,,,,,,
613500,CA,Fallbrook Union Elementary,-117.246982,33.38398,,,,,,,
613530,CA,Fallbrook Union High,-117.236985,33.351764,,,,,,,
600035,CA,Farmersville Unified,-119.201536,36.307912,,,,,,,
600037,CA,Ferndale Unified,-124.259664,40.58474,,,,,,,
613740,CA,Fieldbrook Elementary,-124.033676,40.956171,,,,,,,
613800,CA,Fillmore Unified,-118.91361,34.399925,,,,,,,
613840,CA,Firebaugh-Las Deltas Unified,-120.444664,36.844344,,,,,,,
613860,CA,Flournoy Union Elementary,-122.45468,39.9184,,,,,,,
613890,CA,Folsom-Cordova Unified,-121.19919,38.63363,,,,,,,
613920,CA,Fontana Unified,-117.43583,34.1032,,,,,,,
613980,CA,Foresthill Union Elementary,-120.812452,39.02108,,,,,,,
614010,CA,Forestville Union Elementary,-122.887898,38.472534,,,,,,,
614040,CA,Forks of Salmon Elementary,-123.326771,41.259718,,,,,,,
614070,CA,Fort Bragg Unified,-123.79553,39.438946,,,,,,,
614130,CA,Fort Ross Elementary,-123.263897,38.555961,,,,,,,
600011,CA,Fort Sage Unified,-120.184925,40.134149,,,,,,,
601420,CA,Fortuna Elementary,-124.157627,40.596397,,,,,,,
614190,CA,Fortuna Union High,-124.15443,40.595181,,,,,,,
614220,CA,Fountain Valley Elementary,-117.953456,33.709097,,,,,,,
614250,CA,Fowler Unified,-119.673716,36.634897,,,,,,,
614340,CA,Franklin Elementary,-121.689085,39.1283,,,,,,,
614370,CA,Franklin-McKinley Elementary,-121.849411,37.313918,,,,,,,
614400,CA,Fremont Unified,-122.01327,37.55508,,,,,,,
614430,CA,Fremont Union High,-122.03476,37.35225,,,,,,,
614490,CA,French Gulch-Whiskeytown Elementary,-122.626881,40.723571,,,,,,,
614520,CA,Freshwater Elementary,-124.083084,40.786011,,,,,,,
691007,CA,Fresno County Office of Education,-119.790588,36.735915,,,,,,,
614550,CA,Fresno Unified,-119.786696,36.736356,,,,,,,
614700,CA,Fruitvale Elementary,-119.083685,35.383293,,,,,,,
614730,CA,Fullerton Elementary,-117.951257,33.867003,,,,,,,
614760,CA,Fullerton Joint Union High,-117.943926,33.888168,,,,,,,
614790,CA,Galt Joint Union Elementary,-121.297671,38.252567,,,,,,,
614820,CA,Galt Joint Union High,-121.279042,38.286067,,,,,,,
614880,CA,Garden Grove Unified,-117.952378,33.777737,,,,,,,
614910,CA,Garfield Elementary,-124.061359,40.761533,,,,,,,
614940,CA,Garvey Elementary,-118.099413,34.061219,,,,,,,
614950,CA,Gateway Unified,-122.388012,40.630973,,,,,,,
614970,CA,Gazelle Union Elementary,-122.524134,41.519244,,,,,,,
615000,CA,General Shafter Elementary,-119.022951,35.223114,,,,,,,
615090,CA,Gerber Union Elementary,-122.18081,40.068928,,,,,,,
615150,CA,Geyserville Unified,-122.891351,38.718197,,,,,,,
615180,CA,Gilroy Unified,-121.562234,37.015803,,,,,,,
615240,CA,Glendale Unified,-118.250202,34.148972,,,,,,,
615270,CA,Glendora Unified,-117.846198,34.143774,,,,,,,
691008,CA,Glenn County Office of Education,-122.208866,39.51606,,,,,,,
615390,CA,Gold Oak Union Elementary,-120.717305,38.692639,,,,,,,
615450,CA,Gold Trail Union Elementary,-120.928005,38.769831,,,,,,,
615480,CA,Golden Feather Union Elementary,-121.528476,39.73052,,,,,,,
691134,CA,Golden Plains Unified,-120.192725,36.606605,,,,,,,
600068,CA,Golden Valley Unified,-119.86738,36.923088,,,,,,,
615510,CA,Goleta Union Elementary,-119.830693,34.44662,,,,,,,
600046,CA,Gonzales Unified,-121.440985,36.510985,,,,,,,
615600,CA,Gorman Joint,-118.884845,34.816795,,,,,,,
615690,CA,Grant Elementary,-122.472338,40.541673,,,,,,,
615780,CA,Grass Valley Elementary,-121.075444,39.222415,,,,,,,
615810,CA,Gratton Elementary,-120.792112,37.572903,,,,,,,
615840,CA,Gravenstein Union Elementary,-122.784631,38.361512,,,,,,,
615870,CA,Graves Elementary,-121.700976,36.696534,,,,,,,
615990,CA,Green Point Elementary,-123.868245,41.020645,,,,,,,
616050,CA,Greenfield Union,-119.020054,35.304139,,,,,,,
616080,CA,Greenfield Union Elementary,-121.248037,36.326257,,,,,,,
616110,CA,Grenada Elementary,-122.530409,41.633507,,,,,,,
600051,CA,Gridley Unified,-121.691614,39.363173,,,,,,,
616230,CA,Grossmont Union High,-117.02381,32.76611,,,,,,,
616260,CA,Guadalupe Union Elementary,-120.573945,34.96206,,,,,,,
616320,CA,Guerneville Elementary,-122.996308,38.510688,,,,,,,
616323,CA,Gustine Unified,-121.011023,37.249313,,,,,,,
616325,CA,Hacienda la Puente Unified,-117.95661,34.02336,,,,,,,
601339,CA,Hamilton Unified,-122.011545,39.740855,,,,,,,
616470,CA,Hanford Elementary,-119.647685,36.33054,,,,,,,
616500,CA,Hanford Joint Union High,-119.65718,36.328023,,,,,,,
616530,CA,Happy Camp Union Elementary,-123.37568,41.79913,,,,,,,
616560,CA,Happy Valley Elementary,-121.990603,37.024576,,,,,,,
616570,CA,Happy Valley Union Elementary,-122.454596,40.474197,,,,,,,
616620,CA,Harmony Union Elementary,-122.932069,38.388484,,,,,,,
616650,CA,Hart-Ransom Union Elementary,-121.065919,37.666988,,,,,,,
616680,CA,Hawthorne,-118.351919,33.9037,,,,,,,
616740,CA,Hayward Unified,-122.09656,37.65586,,,,,,,
600044,CA,Healdsburg Unified,-122.868013,38.622062,,,,,,,
616830,CA,Heber Elementary,-115.52998,32.727148,,,,,,,
616860,CA,Helendale Elementary,-117.339099,34.740238,,,,,,,
616920,CA,Hemet Unified,-116.99028,33.743763,,,,,,,
617040,CA,Hermosa Beach City Elementary,-118.396131,33.866698,,,,,,,
600014,CA,Hesperia Unified,-117.322417,34.424637,,,,,,,
617190,CA,Hillsborough City Elementary,-122.33778,37.562589,,,,,,,
617220,CA,Hilmar Unified,-120.850571,37.40184,,,,,,,
617340,CA,Hollister,-121.401089,36.823787,,,,,,,
617430,CA,Holtville Unified,-115.37331,32.812937,,,,,,,
617490,CA,Hope Elementary,-119.753911,34.444268,,,,,,,
617520,CA,Hope Elementary,-119.031502,36.022149,,,,,,,
617580,CA,Horicon Elementary,-123.364992,38.716677,,,,,,,
617620,CA,Hornbrook Elementary,-122.487557,41.882254,,,,,,,
617640,CA,Hot Springs Elementary,-118.668849,35.880849,,,,,,,
617760,CA,Howell Mountain Elementary,-122.449383,38.582856,,,,,,,
617850,CA,Hueneme Elementary,-119.195637,34.149162,,,,,,,
617880,CA,Hughes-Elizabeth Lakes Union Elementary,-118.392005,34.66161,,,,,,,
600060,CA,Hughson Unified,-120.86958,37.601215,,,,,,,
691009,CA,Humboldt County Office of Education,-124.150193,40.800884,,,,,,,
618030,CA,Huntington Beach City Elementary,-117.974474,33.654048,,,,,,,
618060,CA,Huntington Beach Union High,-118.027161,33.744362,,,,,,,
618120,CA,Hydesville Elementary,-124.092556,40.54919,,,,,,,
618160,CA,Igo Ono Platina Union Elementary,-122.39308,40.58262,,,,,,,
691010,CA,Imperial County Office of Education,-115.564577,32.750071,,,,,,,
618210,CA,Imperial Unified,-115.574897,32.849661,,,,,,,
618240,CA,Indian Diggings Elementary,-120.577286,38.581683,,,,,,,
618270,CA,Indian Springs Elementary,-121.914852,41.021115,,,,,,,
618390,CA,Inglewood Unified,-118.361747,33.958722,,,,,,,
691011,CA,Inyo County Office of Education,-118.199545,36.802325,,,,,,,
684500,CA,Irvine Unified,-117.792332,33.675653,,,,,,,
618660,CA,Jacoby Creek Elementary,-124.066946,40.846951,,,,,,,
618690,CA,Jamestown Elementary,-120.418035,37.954702,,,,,,,
618730,CA,Jamul-Dulzura Union Elementary,-116.854713,32.730089,,,,,,,
618780,CA,Janesville Union Elementary,-120.542155,40.30916,,,,,,,
618810,CA,Jefferson Elementary,-121.079898,36.509508,,,,,,,
618840,CA,Jefferson Elementary,-121.440903,37.700244,,,,,,,
618870,CA,Jefferson Elementary,-122.484549,37.679003,,,,,,,
618930,CA,Jefferson Union High,-122.478507,37.669183,,,,,,,
618990,CA,John Swett Unified,-122.267325,38.032715,,,,,,,
619050,CA,Johnstonville Elementary,-120.589802,40.383664,,,,,,,
619140,CA,Julian Union Elementary,-116.577695,33.066385,,,,,,,
619110,CA,Julian Union High,-116.577695,33.066385,,,,,,,
619170,CA,Junction City Elementary,-123.060082,40.732733,,,,,,,
619200,CA,Junction Elementary,-122.238312,40.549888,,,,,,,
619230,CA,Junction Elementary,-123.509138,41.474824,,,,,,,
619260,CA,Jurupa Unified,-117.475383,34.000594,,,,,,,
632340,CA,Kashia Elementary,-123.397033,38.646304,,,,,,,
619320,CA,Kelseyville Unified,-122.831551,38.975554,,,,,,,
619380,CA,Kentfield Elementary,-122.549383,37.952503,,,,,,,
619410,CA,Kenwood,-122.550605,38.41735,,,,,,,
619440,CA,Keppel Union Elementary,-117.89659,34.499875,,,,,,,
619490,CA,Kerman Unified,-120.063817,36.734937,,,,,,,
691012,CA,Kern County Office of Education,-119.016733,35.374763,,,,,,,
619540,CA,Kern High,-119.065174,35.342454,,,,,,,
619590,CA,Kernville Union Elementary,-118.466584,35.611117,,,,,,,
619620,CA,Keyes Union,-120.903655,37.559368,,,,,,,
619680,CA,King City Union,-121.127687,36.2121,,,,,,,
619700,CA,Kings Canyon Joint Unified,-119.448688,36.590657,,,,,,,
691013,CA,Kings County Office of Education,-119.66299,36.328147,,,,,,,
619740,CA,Kings River Union Elementary,-119.486545,36.517596,,,,,,,
619830,CA,Kingsburg Joint Union High,-119.547845,36.518644,,,,,,,
619860,CA,Kirkwood Elementary,-122.163503,39.856995,,,,,,,
619890,CA,Kit Carson Union Elementary,-119.583016,36.32984,,,,,,,
619920,CA,Klamath River Union Elementary,-122.969268,41.822733,,,,,,,
619950,CA,Klamath-Trinity Joint Unified,-123.67965,41.09227,,,,,,,
619980,CA,Kneeland Elementary,-123.944774,40.725703,,,,,,,
620010,CA,Knights Ferry Elementary,-120.84542,37.76672,,,,,,,
620040,CA,Knightsen Elementary,-121.665635,37.96888,,,,,,,
620070,CA,Konocti Unified,-122.608823,38.914555,,,,,,,
620130,CA,La Canada Unified,-118.203623,34.205675,,,,,,,
620190,CA,La Habra City Elementary,-117.94526,33.931865,,,,,,,
620220,CA,La Honda-Pescadero Unified,-122.363348,37.246997,,,,,,,
620250,CA,La Mesa-Spring Valley,-117.022281,32.76528,,,,,,,
620310,CA,Lafayette Elementary,-122.114081,37.887491,,,,,,,
620370,CA,Laguna Beach Unified,-117.777511,33.542263,,,,,,,
620430,CA,Laguna Joint Elementary,-122.715642,38.199852,,,,,,,
620490,CA,Lagunita Elementary,-121.60538,36.77156,,,,,,,
620520,CA,Lagunitas Elementary,-122.67004,38.013808,,,,,,,
691014,CA,Lake County Office of Education,-122.915199,39.034521,,,,,,,
620610,CA,Lake Elementary,-122.159443,39.767792,,,,,,,
600027,CA,Lake Elsinore Unified,-117.335932,33.682781,,,,,,,
620640,CA,Lake Tahoe Unified,-119.975844,38.934444,,,,,,,
620670,CA,Lakeport Unified,-122.918537,39.062446,,,,,,,
620700,CA,Lakeside Joint,-122.017803,37.193199,,,,,,,
620730,CA,Lakeside Union,-119.109951,35.221906,,,,,,,
620760,CA,Lakeside Union Elementary,-119.62166,36.240428,,,,,,,
620790,CA,Lakeside Union Elementary,-116.92572,32.85626,,,,,,,
601410,CA,Lammersville Joint Unified,-121.534723,37.777696,,,,,,,
620850,CA,Lamont Elementary,-118.916357,35.263231,,,,,,,
620880,CA,Lancaster Elementary,-118.139042,34.694698,,,,,,,
620910,CA,Larkspur-Corte Madera,-122.531585,37.938209,,,,,,,
622380,CA,Las Lomitas Elementary,-122.201533,37.42712,,,,,,,
621000,CA,Las Virgenes Unified,-118.702946,34.134372,,,,,,,
691015,CA,Lassen County Office of Education,-120.580785,40.37616,,,,,,,
621060,CA,Lassen Union High,-120.657687,40.417573,,,,,,,
621090,CA,Lassen View Union Elementary,-122.108049,40.105852,,,,,,,
621150,CA,Laton Joint Unified,-119.688789,36.432951,,,,,,,
621180,CA,Latrobe,-120.991085,38.555507,,,,,,,
621210,CA,Lawndale Elementary,-118.347878,33.898349,,,,,,,
642580,CA,Laytonville Unified,-123.49512,39.68401,,,,,,,
621240,CA,Le Grand Union Elementary,-120.2507,37.229615,,,,,,,
621270,CA,Le Grand Union High,-120.25437,37.228403,,,,,,,
609665,CA,Leggett Valley Unified,-123.748639,39.890912,,,,,,,
621330,CA,Lemon Grove,-117.026156,32.738222,,,,,,,
621360,CA,Lemoore Union Elementary,-119.789734,36.296042,,,,,,,
621400,CA,Lemoore Union High,-119.779704,36.29842,,,,,,,
621420,CA,Lennox,-118.357032,33.942435,,,,,,,
621480,CA,Lewiston Elementary,-122.813866,40.700295,,,,,,,
621540,CA,Liberty Elementary,-122.705613,38.279249,,,,,,,
621570,CA,Liberty Elementary,-119.320169,36.247558,,,,,,,
621600,CA,Liberty Union High,-121.69156,37.934407,,,,,,,
621660,CA,Lincoln Elementary,-122.710617,38.152132,,,,,,,
621690,CA,Lincoln Unified,-121.334558,38.000464,,,,,,,
621810,CA,Linden Unified,-121.080915,38.019192,,,,,,,
621870,CA,Lindsay Unified,-119.088175,36.206189,,,,,,,
621900,CA,Linns Valley-Poso Flat Union,-118.72033,35.73587,,,,,,,
621930,CA,Little Lake City Elementary,-118.082147,33.938605,,,,,,,
621960,CA,Little Shasta Elementary,-122.38827,41.711467,,,,,,,
621990,CA,Live Oak Elementary,-121.985579,36.984156,,,,,,,
622050,CA,Live Oak Unified,-121.65523,39.276077,,,,,,,
622110,CA,Livermore Valley Joint Unified,-121.791754,37.688296,,,,,,,
622170,CA,Livingston Union,-120.729225,37.385894,,,,,,,
622230,CA,Lodi Unified,-121.249682,38.123381,,,,,,,
622320,CA,Loleta Union Elementary,-124.206616,40.629787,,,,,,,
622350,CA,Loma Prieta Joint Union Elementary,-121.942629,37.126578,,,,,,,
622410,CA,Lompoc Unified,-120.46717,34.63912,,,,,,,
622440,CA,Lone Pine Unified,-118.061345,36.603465,,,,,,,
622500,CA,Long Beach Unified,-118.213742,33.828647,,,,,,,
622560,CA,Loomis Union Elementary,-121.201037,38.830809,,,,,,,
622590,CA,Los Alamitos Unified,-118.063158,33.815385,,,,,,,
622650,CA,Los Altos Elementary,-122.107612,37.370521,,,,,,,
691078,CA,Los Angeles County Office of Education,-118.129023,33.916246,,,,,,,
622710,CA,Los Angeles Unified,-118.257154,34.056035,,,,,,,
622740,CA,Los Banos Unified,-120.839728,37.053189,,,,,,,
622830,CA,Los Gatos Union Elementary,-121.966947,37.234688,,,,,,,
622800,CA,Los Gatos-Saratoga Union High,-121.974938,37.240467,,,,,,,
622860,CA,Los Molinos Unified,-122.099887,40.024367,,,,,,,
622890,CA,Los Nietos,-118.066777,33.96655,,,,,,,
622920,CA,Los Olivos Elementary,-120.115025,34.665015,,,,,,,
622950,CA,Lost Hills Union Elementary,-119.689775,35.61679,,,,,,,
623010,CA,Lowell Joint,-117.976605,33.932932,,,,,,,
623040,CA,Lucerne Elementary,-122.78373,39.07496,,,,,,,
600015,CA,Lucerne Valley Unified,-116.906706,34.408498,,,,,,,
623080,CA,Lucia Mar Unified,-120.576153,35.11551,,,,,,,
623130,CA,Luther Burbank,-121.926706,37.323562,,,,,,,
623160,CA,Lynwood Unified,-118.199999,33.926323,,,,,,,
691017,CA,Madera County Superintendent of Schools,-120.055966,36.94262,,,,,,,
623340,CA,Madera Unified,-120.081105,36.952641,,,,,,,
623430,CA,Magnolia Elementary,-117.98011,33.824882,,,,,,,
623460,CA,Magnolia Union Elementary,-115.423452,32.981999,,,,,,,
623530,CA,Mammoth Unified,-118.91842,37.62359,,,,,,,
623550,CA,Manchester Union Elementary,-123.68308,39.026005,,,,,,,
600025,CA,Manhattan Beach Unified,-118.38744,33.877204,,,,,,,
623610,CA,Manteca Unified,-121.211595,37.801025,,,,,,,
623700,CA,Manzanita Elementary,-121.658948,39.334495,,,,,,,
623730,CA,Maple Creek Elementary,-123.870946,40.759925,,,,,,,
623760,CA,Maple Elementary,-119.338345,35.514434,,,,,,,
623800,CA,Marcum-Illinois Union Elementary,-121.543176,38.911388,,,,,,,
623820,CA,Maricopa Unified,-119.402714,35.055324,,,,,,,
691018,CA,Marin County Office of Education,-122.52898,37.99754,,,,,,,
691090,CA,Mariposa County Office of Education,-120.07141,37.5171,,,,,,,
623940,CA,Mariposa County Unified,-119.977366,37.496242,,,,,,,
623970,CA,Mark Twain Union Elementary,-120.58324,38.06659,,,,,,,
624000,CA,Mark West Union Elementary,-122.74228,38.500755,,,,,,,
624030,CA,Martinez Unified,-122.131763,38.014885,,,,,,,
624090,CA,Marysville Joint Unified,-121.588821,39.157596,,,,,,,
600038,CA,Mattole Unified,-124.230204,40.270308,,,,,,,
624150,CA,Maxwell Unified,-122.194785,39.276235,,,,,,,
624180,CA,McCabe Union Elementary,-115.595018,32.752402,,,,,,,
624210,CA,McCloud Union Elementary,-122.13916,41.25423,,,,,,,
624230,CA,McFarland Unified,-119.229294,35.680909,,,,,,,
624300,CA,McKinleyville Union Elementary,-124.100974,40.94634,,,,,,,
624330,CA,McKittrick Elementary,-119.764225,35.442685,,,,,,,
624360,CA,McSwain Union Elementary,-120.568582,37.301282,,,,,,,
624390,CA,Meadows Union Elementary,-115.473833,32.80021,,,,,,,
691019,CA,Mendocino County Office of Education,-123.164503,39.129355,,,,,,,
624480,CA,Mendocino Unified,-123.78461,39.32047,,,,,,,
600022,CA,Mendota Unified,-120.386946,36.760956,,,,,,,
624540,CA,Menifee Union Elementary,-117.176205,33.688144,,,,,,,
624570,CA,Menlo Park City Elementary,-122.186226,37.463338,,,,,,,
624600,CA,Merced City Elementary,-120.479479,37.307228,,,,,,,
691020,CA,Merced County Office of Education,-120.4886,37.296596,,,,,,,
624630,CA,Merced River Union Elementary,-120.564786,37.438481,,,,,,,
624660,CA,Merced Union High,-120.48114,37.30848,,,,,,,
624690,CA,Meridian Elementary,-121.9096,39.143313,,,,,,,
624720,CA,Mesa Union Elementary,-119.093792,34.262157,,,,,,,
624750,CA,Middletown Unified,-122.615524,38.756199,,,,,,,
624780,CA,Midway Elementary,-119.593145,35.248135,,,,,,,
624870,CA,Mill Valley Elementary,-122.529166,37.896563,,,,,,,
624900,CA,Millbrae Elementary,-122.406538,37.598672,,,,,,,
611220,CA,Miller Creek Elementary,-122.549131,37.998578,,,,,,,
624930,CA,Millville Elementary,-122.169066,40.551318,,,,,,,
624500,CA,Milpitas Unified,-121.883358,37.435866,,,,,,,
625110,CA,Mission Union Elementary,-121.365551,36.390263,,,,,,,
691093,CA,Modoc County Office of Education,-120.54388,41.480798,,,,,,,
625190,CA,Modoc Joint Unified,-120.554711,41.487385,,,,,,,
625230,CA,Mojave Unified,-118.194755,35.06097,,,,,,,
691052,CA,Mono County Office of Education,-118.991299,37.645207,,,,,,,
625290,CA,Monroe Elementary,-119.736938,36.563271,,,,,,,
625320,CA,Monrovia Unified,-117.99545,34.14066,,,,,,,
625350,CA,Monson-Sultana Joint Union Elementary,-119.34006,36.54521,,,,,,,
625380,CA,Montague Elementary,-122.39514,41.64256,,,,,,,
625410,CA,Monte Rio Union Elementary,-123.013761,38.471024,,,,,,,
625470,CA,Montebello Unified,-118.108405,34.009615,,,,,,,
625500,CA,Montecito Union Elementary,-119.631983,34.43206,,,,,,,
691021,CA,Monterey County Office of Education,-121.66971,36.69619,,,,,,,
625530,CA,Monterey Peninsula Unified,-121.89528,36.59581,,,,,,,
625650,CA,Montgomery Elementary,-123.068149,38.503296,,,,,,,
625690,CA,Moorpark Unified,-118.896102,34.281676,,,,,,,
625740,CA,Moraga Elementary,-122.130857,37.834897,,,,,,,
625770,CA,Moreland,-121.983899,37.289157,,,,,,,
625800,CA,Moreno Valley Unified,-117.215242,33.918391,,,,,,,
625830,CA,Morgan Hill Unified,-121.634886,37.111776,,,,,,,
625860,CA,Morongo Unified,-116.054015,34.134595,,,,,,,
625980,CA,Mother Lode Union Elementary,-120.830641,38.708774,,,,,,,
626400,CA,Mount Pleasant Elementary,-121.800286,37.348766,,,,,,,
626070,CA,Mountain Elementary,-121.94962,37.025996,,,,,,,
626100,CA,Mountain Empire Unified,-116.492047,32.73449,,,,,,,
626130,CA,Mountain House Elementary,-121.582302,37.786163,,,,,,,
627040,CA,Mountain Union Elementary,-121.848793,40.863777,,,,,,,
600018,CA,Mountain Valley Unified,-123.16691,40.550165,,,,,,,
626190,CA,Mountain View Elementary,-118.009594,34.062631,,,,,,,
626220,CA,Mountain View Elementary,-117.593111,34.027171,,,,,,,
626280,CA,Mountain View Whisman,-122.083294,37.402739,,,,,,,
626310,CA,Mountain View-Los Altos Union High,-122.067159,37.361264,,,,,,,
626340,CA,Mt. Baldy Joint Elementary,-117.65876,34.23648,,,,,,,
626370,CA,Mt. Diablo Unified,-122.005978,37.986037,,,,,,,
626040,CA,Mt. Shasta Union Elementary,-122.309804,41.319175,,,,,,,
626430,CA,Mulberry Elementary,-115.41768,33.044483,,,,,,,
626460,CA,Mupu Elementary,-119.071972,34.386509,,,,,,,
626490,CA,Muroc Joint Unified,-117.826583,35.0157,,,,,,,
600029,CA,Murrieta Valley Unified,-117.185212,33.530315,,,,,,,
691022,CA,Napa County Office of Education,-122.256857,38.277785,,,,,,,
626640,CA,Napa Valley Unified,-122.296936,38.308729,,,,,,,
626670,CA,National Elementary,-117.090263,32.673714,,,,,,,
600036,CA,Natomas Unified,-121.503394,38.647408,,,,,,,
626760,CA,Needles Unified,-114.618578,34.838399,,,,,,,
626820,CA,Nevada City Elementary,-121.031165,39.252578,,,,,,,
691023,CA,Nevada County Office of Education,-121.028245,39.219744,,,,,,,
